% program   : RTKPOST ver.demo5 b34d
% inp file  : C:\Users\snewm\Documents\OUTPUTGPSMYGUY\PPK\Mar21\PPKdata_39_2023-03-13-09_42_10.obs
% inp file  : C:\Users\snewm\Documents\OUTPUTGPSMYGUY\PPK\Mar21\COM10___57600_230313_153820.obs
% inp file  : C:\Users\snewm\Documents\OUTPUTGPSMYGUY\PPK\Mar21\COM10___57600_230313_153820.nav
% inp file  : C:\Users\snewm\Documents\OUTPUTGPSMYGUY\PPK\Mar21\COM10___57600_230313_153820.sbs
% obs start : 2023/03/13 15:42:29.0 GPST (week2253 142949.0s)
% obs end   : 2023/03/13 16:29:40.0 GPST (week2253 145780.0s)
% pos mode  : Kinematic
% freqs     : L1+L2/E5b
% solution  : Forward
% elev mask : 15.0 deg
% dynamics  : on
% tidecorr  : off
% ionos opt : Broadcast
% tropo opt : Saastamoinen
% ephemeris : Broadcast
% navi sys  : GPS GLONASS
% amb res   : Fix and Hold
% amb glo   : Fix and Hold
% val thres : 3.0
% antenna1  :                       ( 0.0000  0.0000  0.0000)
% antenna2  :                       ( 0.0000  0.0000  0.0000)
% ref pos   : 40.086171254 -105.233751646  1635.2396
%
% (lat/lon/height=WGS84/ellipsoidal,Q=1:fix,2:float,3:sbas,4:dgps,5:single,6:ppp,ns=# of satellites)
%  GPST                  latitude(deg) longitude(deg)  height(m)   Q  ns   sdn(m)   sde(m)   sdu(m)  sdne(m)  sdeu(m)  sdun(m) age(s)  ratio
2023/03/13 15:42:29.000   40.086045179 -105.233634098  1608.9242   2   6   7.3478   4.3408  17.7738   4.5156   7.1626  10.8950   0.01    0.0
2023/03/13 15:42:30.000   40.086059924 -105.233627201  1613.0824   2   6   5.9346   3.4759  14.5862   3.6640   5.8539   8.9392   0.01    0.0
2023/03/13 15:42:31.000   40.086069921 -105.233622068  1615.9972   2   6   5.0191   2.9573  12.3941   3.1031   4.9712   7.5889   0.01    0.0
2023/03/13 15:42:32.000   40.086081778 -105.233615663  1619.6108   2   6   4.3304   2.5929  10.7013   2.6783   4.2972   6.5427   0.01    0.0
2023/03/13 15:42:33.000   40.086090789 -105.233611497  1622.0667   2   6   3.7781   2.3159   9.3234   2.3365   3.7526   5.6890   0.01    0.0
2023/03/13 15:42:34.000   40.086112742 -105.233601073  1628.3329   2   5   3.3528   2.1426   8.2507   2.0899   3.3562   5.0260   0.01    0.0
2023/03/13 15:42:35.000   40.086114198 -105.233600743  1628.3217   2   4   3.2581   2.0610   7.9114   2.0475   3.2505   4.8524   0.01    0.0
2023/03/13 15:42:36.000   40.086117688 -105.233594288  1628.9667   2   5   3.1691   1.9488   7.5982   1.9825   3.1182   4.6902   0.01    0.0
2023/03/13 15:42:37.000   40.086118639 -105.233591459  1629.3892   2   6   2.6465   1.7477   6.2724   1.6429   2.5839   3.8446   0.01    0.0
2023/03/13 15:42:38.000   40.086121633 -105.233589874  1630.0231   2   5   2.5349   1.6646   5.9506   1.5733   2.4569   3.6557   0.01    0.0
2023/03/13 15:42:39.000   40.086120258 -105.233600231  1629.7254   2   4   2.5005   2.6714   5.8106   1.6413   2.3133   3.5832   0.01    0.0
2023/03/13 15:42:40.000   40.086118594 -105.233595699  1629.2362   2   5   2.4213   1.6006   5.6589   1.5310   2.3878   3.4974   0.01    0.0
2023/03/13 15:42:41.000   40.086114437 -105.233597359  1628.2446   2   5   2.3514   1.5479   5.5261   1.4790   2.3160   3.4138   0.01    0.0
2023/03/13 15:42:42.000   40.086113676 -105.233599272  1627.7093   2   4   2.3254   1.5085   5.4282   1.4532   2.2643   3.3670   0.01    0.0
2023/03/13 15:42:43.000   40.086115239 -105.233599460  1628.0585   2   5   2.2453   1.4605   5.2583   1.3964   2.1830   3.2592   0.01    0.0
2023/03/13 15:42:44.000   40.086118074 -105.233598939  1628.7460   2   5   2.1628   1.4143   5.0798   1.3386   2.0991   3.1446   0.01    0.0
2023/03/13 15:42:45.000   40.086121036 -105.233598068  1629.4029   2   5   2.0794   1.3700   4.8935   1.2806   2.0135   3.0253   0.01    0.0
2023/03/13 15:42:46.000   40.086119487 -105.233595563  1628.7241   2   5   1.9913   1.2951   4.6970   1.2092   1.9214   2.8988   0.01    0.0
2023/03/13 15:42:47.000   40.086122670 -105.233591407  1629.3540   2   6   1.9011   1.2290   4.4859   1.1401   1.8389   2.7699   0.01    0.0
2023/03/13 15:42:48.000   40.086133015 -105.233586580  1632.2517   2   6   1.1134   1.0381   2.3782   0.5954   1.0122   1.3633   0.01    0.0
2023/03/13 15:42:49.000   40.086134019 -105.233586367  1632.5514   2   5   1.0678   1.0100   2.2563   0.5705   0.9653   1.2811   0.01    0.0
2023/03/13 15:42:50.000   40.086132067 -105.233587286  1632.2085   2   6   1.0149   0.9824   2.1182   0.5403   0.9147   1.1933   0.01    0.0
2023/03/13 15:42:51.000   40.086132364 -105.233585695  1632.4946   2   7   0.9070   0.8712   1.8484   0.3644   0.6788   0.9943   0.01    0.0
2023/03/13 15:42:52.000   40.086132241 -105.233584881  1632.6633   2   7   0.8481   0.8169   1.6983   0.2775   0.5663   0.8868   0.01    0.0
2023/03/13 15:42:53.000   40.086133373 -105.233583682  1633.1089   2   7   0.8018   0.7740   1.5808   0.2049   0.4805   0.8027   0.01    0.0
2023/03/13 15:42:54.000   40.086132500 -105.233583532  1632.9799   2   6   0.7752   0.7623   1.5172   0.2098   0.4775   0.7619   0.01    0.0
2023/03/13 15:42:55.000   40.086131951 -105.233583082  1632.8847   2   6   0.7498   0.7416   1.4552   0.2059   0.4783   0.7231   0.01    0.0
2023/03/13 15:42:56.000   40.086131967 -105.233582602  1632.9371   2   5   0.7345   0.7370   1.4288   0.2271   0.5121   0.7099   0.01    0.0
2023/03/13 15:42:57.000   40.086131647 -105.233582055  1632.9335   2   5   0.7260   0.7202   1.4205   0.2290   0.5179   0.7116   0.01    0.0
2023/03/13 15:42:58.000   40.086132625 -105.233580810  1633.2510   2   6   0.7072   0.6969   1.3726   0.1904   0.4756   0.6837   0.01    0.0
2023/03/13 15:42:59.000   40.086133327 -105.233580301  1633.4703   2   5   0.6834   0.6910   1.3099   0.1845   0.4651   0.6408   0.01    0.0
2023/03/13 15:43:00.000   40.086133109 -105.233580236  1633.4898   2   5   0.6630   0.6852   1.2569   0.1799   0.4560   0.6049   0.01    0.0
2023/03/13 15:43:01.000   40.086133930 -105.233579529  1633.7798   2   5   0.6449   0.6795   1.2110   0.1760   0.4480   0.5741   0.01    0.0
2023/03/13 15:43:02.000   40.086133891 -105.233579469  1633.8144   2   6   0.6258   0.6711   1.1617   0.1731   0.4383   0.5394   0.01    0.0
2023/03/13 15:43:03.000   40.086133974 -105.233579187  1633.8907   2   6   0.6184   0.6614   1.1470   0.1773   0.4343   0.5357   0.01    0.0
2023/03/13 15:43:04.000   40.086134782 -105.233574163  1633.9024   2   4   1.0903   2.3309   1.5236   0.7002   0.4774   1.0838   0.01    0.0
2023/03/13 15:43:05.000   40.086133743 -105.233578804  1633.9242   2   6   0.6137   0.6566   1.1438   0.1650   0.4138   0.5454   0.01    0.0
2023/03/13 15:43:06.000   40.086132550 -105.233576974  1633.7889   2   5   0.8320   1.8108   1.4049  -0.9642  -1.1024   0.8751   0.01    0.0
2023/03/13 15:43:07.000   40.086133624 -105.233578891  1633.9970   2   5   0.6624   1.0158   1.2069  -0.4282  -0.3816   0.6428   0.01    0.0
2023/03/13 15:43:08.000   40.086132647 -105.233577628  1633.8407   2   5   0.5981   0.6228   1.1331   0.1866   0.4240   0.5519   0.01    0.0
2023/03/13 15:43:09.000   40.086132924 -105.233577356  1633.9147   2   5   0.5938   0.6146   1.1303   0.1848   0.4245   0.5547   0.01    0.0
2023/03/13 15:43:10.000   40.086133246 -105.233576961  1633.9656   2   5   0.5898   0.6109   1.1275   0.1858   0.4230   0.5570   0.01    0.0
2023/03/13 15:43:11.000   40.086134217 -105.233575974  1634.1735   2   7   0.5792   0.5910   1.1084   0.1653   0.3957   0.5443   0.01    0.0
2023/03/13 15:43:12.000   40.086134798 -105.233574445  1634.3604   2   7   0.5670   0.5740   1.0857   0.1460   0.3724   0.5274   0.01    0.0
2023/03/13 15:43:13.000   40.086135429 -105.233573161  1634.4929   2   7   0.5563   0.5585   1.0656   0.1267   0.3507   0.5130   0.01    0.0
2023/03/13 15:43:14.000   40.086135509 -105.233572753  1634.5320   2   6   0.5503   0.5546   1.0588   0.1348   0.3547   0.5100   0.01    0.0
2023/03/13 15:43:15.000   40.086135398 -105.233572287  1634.5481   2   6   0.5452   0.5501   1.0520   0.1400   0.3558   0.5078   0.01    0.0
2023/03/13 15:43:16.000   40.086135634 -105.233571908  1634.6217   2   6   0.5401   0.5457   1.0451   0.1446   0.3566   0.5055   0.01    0.0
2023/03/13 15:43:17.000   40.086135625 -105.233571818  1634.6642   2   6   0.5351   0.5414   1.0376   0.1486   0.3573   0.5027   0.01    0.0
2023/03/13 15:43:18.000   40.086135878 -105.233570948  1634.8011   2   6   0.5268   0.5287   1.0188   0.1281   0.3341   0.4908   0.01    0.0
2023/03/13 15:43:19.000   40.086135984 -105.233570929  1634.8273   2   5   0.5219   0.5269   1.0127   0.1318   0.3367   0.4882   0.01    0.0
2023/03/13 15:43:20.000   40.086136164 -105.233570688  1634.8476   2   6   0.5171   0.5230   1.0049   0.1353   0.3370   0.4850   0.01    0.0
2023/03/13 15:43:21.000   40.086136216 -105.233570619  1634.8725   2   6   0.5116   0.5191   0.9949   0.1392   0.3377   0.4797   0.01    0.0
2023/03/13 15:43:22.000   40.086136039 -105.233570557  1634.8586   2   6   0.5060   0.5153   0.9843   0.1426   0.3382   0.4738   0.01    0.0
2023/03/13 15:43:23.000   40.086134580 -105.233569046  1634.5909   2   7   0.4972   0.5028   0.9621   0.1262   0.3174   0.4590   0.01    0.0
2023/03/13 15:43:24.000   40.086132996 -105.233569155  1634.1737   2   6   0.4914   0.5002   0.9534   0.1327   0.3220   0.4533   0.01    0.0
2023/03/13 15:43:25.000   40.086133437 -105.233567816  1634.2541   2   6   0.4857   0.4967   0.9417   0.1357   0.3224   0.4464   0.01    0.0
2023/03/13 15:43:26.000   40.086133684 -105.233567195  1634.3413   2   5   0.4806   0.4944   0.9304   0.1363   0.3215   0.4401   0.01    0.0
2023/03/13 15:43:27.000   40.086133674 -105.233567219  1634.3537   2   5   0.4762   0.4923   0.9205   0.1357   0.3196   0.4351   0.01    0.0
2023/03/13 15:43:28.000   40.086133996 -105.233566936  1634.4645   2   5   0.4718   0.4902   0.9103   0.1349   0.3175   0.4299   0.01    0.0
2023/03/13 15:43:29.000   40.086134417 -105.233566522  1634.6216   2   5   0.4672   0.4881   0.8997   0.1340   0.3153   0.4242   0.01    0.0
2023/03/13 15:43:30.000   40.086133477 -105.233565131  1634.5391   2   6   0.4601   0.4781   0.8788   0.1165   0.2942   0.4111   0.01    0.0
2023/03/13 15:43:31.000   40.086133553 -105.233564828  1634.5434   2   5   0.4552   0.4771   0.8709   0.1198   0.2974   0.4057   0.01    0.0
2023/03/13 15:43:32.000   40.086134064 -105.233564530  1634.7142   2   5   0.4505   0.4751   0.8593   0.1191   0.2954   0.3990   0.01    0.0
2023/03/13 15:43:33.000   40.086133707 -105.233564247  1634.5917   2   5   0.4459   0.4732   0.8476   0.1180   0.2931   0.3923   0.01    0.0
2023/03/13 15:43:34.000   40.086133091 -105.233564479  1634.3630   2   4   0.4391   0.4677   0.8265   0.0994   0.2710   0.3786   0.01    0.0
2023/03/13 15:43:35.000   40.086133127 -105.233564251  1634.4004   2   5   0.4365   0.4650   0.8221   0.1011   0.2747   0.3774   0.01    0.0
2023/03/13 15:43:36.000   40.086133098 -105.233563971  1634.4417   2   5   0.4317   0.4632   0.8097   0.1003   0.2729   0.3697   0.01    0.0
2023/03/13 15:43:37.000   40.086132816 -105.233563942  1634.3339   2   5   0.4269   0.4614   0.7968   0.0993   0.2708   0.3615   0.01    0.0
2023/03/13 15:43:38.000   40.086133136 -105.233563790  1634.3593   2   5   0.4221   0.4597   0.7842   0.0982   0.2687   0.3533   0.01    0.0
2023/03/13 15:43:39.000   40.086133605 -105.233563522  1634.4928   2   5   0.4174   0.4579   0.7715   0.0971   0.2666   0.3451   0.01    0.0
2023/03/13 15:43:40.000   40.086133616 -105.233563349  1634.3976   2   6   0.4111   0.4493   0.7501   0.0798   0.2475   0.3312   0.01    0.0
2023/03/13 15:43:41.000   40.086133862 -105.233563041  1634.4349   2   6   0.4046   0.4423   0.7339   0.0679   0.2362   0.3190   0.01    0.0
2023/03/13 15:43:42.000   40.086133967 -105.233562830  1634.4551   2   5   0.4001   0.4418   0.7268   0.0746   0.2417   0.3129   0.01    0.0
2023/03/13 15:43:43.000   40.086134158 -105.233563014  1634.3498   2   6   0.3942   0.4342   0.7060   0.0548   0.2240   0.2989   0.01    0.0
2023/03/13 15:43:44.000   40.086134731 -105.233562900  1634.4507   2   5   0.3899   0.4337   0.6997   0.0633   0.2299   0.2935   0.01    0.0
2023/03/13 15:43:45.000   40.086133424 -105.233563521  1634.1284   2   5   0.3856   0.4323   0.6879   0.0631   0.2288   0.2852   0.01    0.0
2023/03/13 15:43:46.000   40.086135082 -105.233563303  1634.6041   2   5   0.3815   0.4308   0.6762   0.0624   0.2272   0.2771   0.01    0.0
2023/03/13 15:43:47.000   40.086136346 -105.233562420  1634.8008   2   6   0.3761   0.4236   0.6558   0.0399   0.2102   0.2630   0.01    0.0
2023/03/13 15:43:48.000   40.086136750 -105.233562405  1634.8310   2   6   0.3709   0.4179   0.6422   0.0230   0.2016   0.2523   0.01    0.0
2023/03/13 15:43:49.000   40.086137017 -105.233562652  1634.8017   2   6   0.3660   0.4125   0.6291  -0.0208   0.1937   0.2419   0.01    0.0
2023/03/13 15:43:51.000   40.086138015 -105.233562758  1635.0155   2   5   0.3607   0.4122   0.6232   0.0268   0.2014   0.2382   0.01    0.0
2023/03/13 15:43:56.000   40.086140105 -105.233567165  1635.6265   2   4   0.5743   0.6764   1.3823  -0.4908  -0.7846   0.7864   0.01    0.0
2023/03/13 15:43:57.000   40.086139744 -105.233566175  1635.5054   2   5   0.5760   0.6688   1.3958  -0.4922  -0.7899   0.7933   0.01    0.0
2023/03/13 15:43:58.000   40.086139114 -105.233566262  1635.2822   2   4   0.5438   0.6224   1.2985  -0.4408  -0.7020   0.7304   0.01    0.0
2023/03/13 15:43:59.000   40.086137926 -105.233561333  1634.9002   2   4   0.6551   0.7562   1.6416  -0.5931  -0.9618   0.9496   0.01    0.0
2023/03/13 15:44:00.000   40.086139524 -105.233564435  1635.4171   2   5   0.5131   0.5833   1.1984  -0.3966  -0.6228   0.6685   0.01    0.0
2023/03/13 15:44:01.000   40.086138619 -105.233564791  1635.1395   2   6   0.5136   0.5729   1.2051  -0.3953  -0.6205   0.6727   0.01    0.0
2023/03/13 15:44:02.000   40.086140502 -105.233567149  1635.6968   2   4   0.5123   0.5665   1.1967  -0.3962  -0.6189   0.6701   0.01    0.0
2023/03/13 15:44:03.000   40.086140104 -105.233566335  1635.5890   2   5   0.5070   0.5579   1.1828  -0.3864  -0.6028   0.6614   0.01    0.0
2023/03/13 15:44:04.000   40.086139951 -105.233565803  1635.4920   2   6   0.5030   0.5510   1.1719  -0.3845  -0.5992   0.6550   0.01    0.0
2023/03/13 15:44:05.000   40.086139880 -105.233565247  1635.4223   2   6   0.5001   0.5446   1.1643  -0.3818  -0.5944   0.6508   0.01    0.0
2023/03/13 15:44:06.000   40.086139929 -105.233564651  1635.3997   2   6   0.4971   0.5383   1.1566  -0.3791  -0.5894   0.6465   0.01    0.0
2023/03/13 15:44:07.000   40.086139773 -105.233563864  1635.3209   2   5   0.4943   0.5326   1.1508  -0.3764  -0.5856   0.6425   0.01    0.0
2023/03/13 15:44:08.000   40.086139759 -105.233563291  1635.2803   2   5   0.4915   0.5270   1.1444  -0.3737  -0.5815   0.6384   0.01    0.0
2023/03/13 15:44:09.000   40.086139601 -105.233562726  1635.2192   2   5   0.4887   0.5216   1.1377  -0.3710  -0.5773   0.6341   0.01    0.0
2023/03/13 15:44:10.000   40.086139839 -105.233562416  1635.2691   2   5   0.4858   0.5162   1.1308  -0.3683  -0.5730   0.6296   0.01    0.0
2023/03/13 15:44:11.000   40.086139733 -105.233562016  1635.2934   2   5   0.4829   0.5110   1.1236  -0.3655  -0.5686   0.6250   0.01    0.0
2023/03/13 15:44:13.000   40.086139684 -105.233561128  1635.1869   2   5   0.4862   0.5053   1.1422  -0.3627  -0.5642   0.6363   0.01    0.0
2023/03/13 15:44:14.000   40.086140199 -105.233560492  1635.3477   2   6   0.4824   0.4999   1.1308  -0.3616  -0.5620   0.6299   0.01    0.0
2023/03/13 15:44:15.000   40.086139735 -105.233562977  1635.2191   2   4   0.5953   0.6403   1.4861  -0.5184  -0.8343   0.8568   0.01    0.0
2023/03/13 15:44:16.000   40.086141782 -105.233562922  1635.7494   2   5   0.5147   0.5294   1.2396  -0.4013  -0.6326   0.7004   0.01    0.0
2023/03/13 15:44:17.000   40.086144064 -105.233565876  1636.4656   2   6   0.6301   0.6762   1.5920  -0.5644  -0.9126   0.9247   0.01    0.0
2023/03/13 15:44:18.000   40.086138928 -105.233556074  1634.0855   2   6   0.5366   0.5601   1.3080  -0.4419  -0.7024   0.7462   0.01    0.0
2023/03/13 15:44:19.000   40.086151099 -105.233555013  1639.1377   2   6   0.5286   0.5466   1.2843  -0.4298  -0.6811   0.7317   0.01    0.0
2023/03/13 15:44:20.000   40.086155776 -105.233561489  1640.3958   2   5   0.5257   0.5409   1.2759  -0.4248  -0.6726   0.7271   0.01    0.0
2023/03/13 15:44:21.000   40.086158287 -105.233567919  1641.0563   2   6   0.5209   0.5346   1.2624  -0.4208  -0.6655   0.7189   0.01    0.0
2023/03/13 15:44:22.000   40.086162174 -105.233572451  1642.1477   2   6   0.5167   0.5283   1.2506  -0.4165  -0.6580   0.7119   0.01    0.0
2023/03/13 15:44:23.000   40.086165813 -105.233577237  1643.1846   2   6   0.5125   0.5222   1.2386  -0.4120  -0.6502   0.7048   0.01    0.0
2023/03/13 15:44:24.000   40.086168749 -105.233580566  1644.0007   2   6   0.5082   0.5161   1.2262  -0.4075  -0.6422   0.6974   0.01    0.0
2023/03/13 15:44:25.000   40.086169863 -105.233581797  1644.1729   2   6   0.5045   0.5105   1.2169  -0.4037  -0.6357   0.6916   0.01    0.0
2023/03/13 15:44:26.000   40.086170943 -105.233583012  1644.4738   2   6   0.5008   0.5050   1.2063  -0.3998  -0.6288   0.6854   0.01    0.0
2023/03/13 15:44:27.000   40.086171865 -105.233584422  1644.7586   2   6   0.4971   0.4997   1.1954  -0.3958  -0.6219   0.6791   0.01    0.0
2023/03/13 15:44:28.000   40.086172380 -105.233584507  1644.7756   2   6   0.4904   0.4889   1.1735  -0.3868  -0.6052   0.6663   0.01    0.0
2023/03/13 15:44:29.000   40.086172705 -105.233585111  1644.9777   2   6   0.4842   0.4790   1.1519  -0.3786  -0.5894   0.6539   0.01    0.0
2023/03/13 15:44:30.000   40.086170198 -105.233586428  1644.3100   2   5   0.4805   0.4707   1.1405  -0.3687  -0.5714   0.6474   0.01    0.0
2023/03/13 15:44:31.000   40.086174054 -105.233586387  1645.3907   2   6   0.4742   0.4653   1.1215  -0.3657  -0.5665   0.6357   0.01    0.0
2023/03/13 15:44:32.000   40.086174429 -105.233586578  1645.5017   2   6   0.4681   0.4564   1.1019  -0.3581  -0.5522   0.6241   0.01    0.0
2023/03/13 15:44:33.000   40.086175297 -105.233587313  1645.7469   2   6   0.4629   0.4488   1.0846  -0.3517  -0.5402   0.6140   0.01    0.0
2023/03/13 15:44:34.000   40.086176142 -105.233588116  1646.0539   2   6   0.4588   0.4443   1.0725  -0.3478  -0.5334   0.6068   0.01    0.0
2023/03/13 15:44:35.000   40.086176760 -105.233588556  1646.2602   2   6   0.4546   0.4399   1.0600  -0.3438  -0.5263   0.5993   0.01    0.0
2023/03/13 15:44:36.000   40.086176596 -105.233587695  1646.3287   2   4   0.4523   0.4388   1.0520  -0.3431  -0.5244   0.5951   0.01    0.0
2023/03/13 15:44:37.000   40.086177926 -105.233589494  1646.7869   2   6   0.4473   0.4333   1.0376  -0.3379  -0.5156   0.5862   0.01    0.0
2023/03/13 15:44:38.000   40.086178796 -105.233590036  1646.9328   2   6   0.4427   0.4287   1.0236  -0.3335  -0.5078   0.5776   0.01    0.0
2023/03/13 15:44:39.000   40.086178960 -105.233590440  1647.0215   2   6   0.4379   0.4242   1.0093  -0.3290  -0.4998   0.5689   0.01    0.0
2023/03/13 15:44:40.000   40.086178997 -105.233590408  1647.1155   2   6   0.4331   0.4196   0.9947  -0.3244  -0.4917   0.5599   0.01    0.0
2023/03/13 15:44:41.000   40.086179360 -105.233590667  1647.2541   2   6   0.4282   0.4151   0.9799  -0.3198  -0.4836   0.5508   0.01    0.0
2023/03/13 15:44:42.000   40.086179554 -105.233590587  1647.2997   2   6   0.4233   0.4107   0.9648  -0.3151  -0.4753   0.5415   0.01    0.0
2023/03/13 15:44:43.000   40.086179479 -105.233590548  1647.3301   2   6   0.4183   0.4062   0.9494  -0.3104  -0.4669   0.5320   0.01    0.0
2023/03/13 15:44:44.000   40.086180408 -105.233591050  1647.6130   2   6   0.4133   0.4018   0.9339  -0.3056  -0.4584   0.5223   0.01    0.0
2023/03/13 15:44:45.000   40.086179456 -105.233590113  1647.3800   2   6   0.4082   0.3974   0.9182  -0.3008  -0.4498   0.5126   0.01    0.0
2023/03/13 15:44:46.000   40.086178018 -105.233588385  1646.9508   2   6   0.4031   0.3930   0.9024  -0.2960  -0.4412   0.5027   0.01    0.0
2023/03/13 15:44:47.000   40.086177181 -105.233587373  1646.6530   2   6   0.3980   0.3887   0.8865  -0.2912  -0.4326   0.4927   0.01    0.0
2023/03/13 15:44:48.000   40.086176988 -105.233587115  1646.5993   2   6   0.3979   0.3868   0.8825  -0.2910  -0.4310   0.4918   0.01    0.0
2023/03/13 15:44:49.000   40.086176846 -105.233586763  1646.5463   2   6   0.3965   0.3845   0.8790  -0.2899  -0.4291   0.4901   0.01    0.0
2023/03/13 15:44:50.000   40.086176738 -105.233586356  1646.4534   2   6   0.3954   0.3824   0.8757  -0.2890  -0.4274   0.4883   0.01    0.0
2023/03/13 15:44:51.000   40.086175102 -105.233584741  1646.1542   2   5   0.5332   0.5561   1.3076  -0.4780  -0.7592   0.7655   0.01    0.0
2023/03/13 15:44:52.000   40.086175633 -105.233585498  1646.2797   2   5   0.4254   0.4204   0.9766  -0.3348  -0.5112   0.5539   0.01    0.0
2023/03/13 15:44:53.000   40.086174629 -105.233583986  1645.9426   2   6   0.3950   0.3790   0.8739  -0.2898  -0.4284   0.4884   0.01    0.0
2023/03/13 15:44:54.000   40.086174284 -105.233583616  1645.8230   2   6   0.3920   0.3752   0.8673  -0.2864  -0.4233   0.4835   0.01    0.0
2023/03/13 15:44:55.000   40.086173905 -105.233582790  1645.6503   2   6   0.3902   0.3726   0.8628  -0.2846  -0.4203   0.4806   0.01    0.0
2023/03/13 15:44:56.000   40.086172983 -105.233581860  1645.4661   2   6   0.3888   0.3703   0.8590  -0.2832  -0.4179   0.4783   0.01    0.0
2023/03/13 15:44:57.000   40.086173002 -105.233581966  1645.4157   2   6   0.3874   0.3682   0.8555  -0.2819  -0.4158   0.4762   0.01    0.0
2023/03/13 15:44:58.000   40.086173258 -105.233581894  1645.3662   2   6   0.3862   0.3661   0.8521  -0.2808  -0.4138   0.4742   0.01    0.0
2023/03/13 15:44:59.000   40.086172966 -105.233581543  1645.2879   2   6   0.3850   0.3642   0.8488  -0.2797  -0.4119   0.4723   0.01    0.0
2023/03/13 15:45:00.000   40.086172883 -105.233581404  1645.2485   2   6   0.3838   0.3622   0.8456  -0.2787  -0.4101   0.4704   0.01    0.0
2023/03/13 15:45:01.000   40.086172575 -105.233580942  1645.1549   2   5   0.3838   0.3619   0.8465  -0.2759  -0.4049   0.4713   0.01    0.0
2023/03/13 15:45:02.000   40.086172278 -105.233580430  1645.0093   2   6   0.3818   0.3590   0.8400  -0.2764  -0.4060   0.4674   0.01    0.0
2023/03/13 15:45:03.000   40.086172553 -105.233580181  1645.0036   2   6   0.3798   0.3555   0.8347  -0.2738  -0.4017   0.4639   0.01    0.0
2023/03/13 15:45:04.000   40.086174702 -105.233582587  1645.4078   2   6   0.3808   0.3552   0.8352  -0.2753  -0.4031   0.4655   0.01    0.0
2023/03/13 15:45:05.000   40.086173168 -105.233580959  1645.1261   2   6   0.3770   0.3501   0.8266  -0.2704  -0.3957   0.4591   0.01    0.0
2023/03/13 15:45:06.000   40.086173124 -105.233580593  1645.0341   2   6   0.3773   0.3489   0.8259  -0.2709  -0.3957   0.4595   0.01    0.0
2023/03/13 15:45:07.000   40.086172631 -105.233580014  1644.9144   2   6   0.3734   0.3440   0.8174  -0.2659  -0.3884   0.4531   0.01    0.0
2023/03/13 15:45:08.000   40.086172506 -105.233579758  1644.8442   2   5   0.3725   0.3450   0.8166  -0.2622  -0.3814   0.4523   0.01    0.0
2023/03/13 15:45:09.000   40.086172076 -105.233579134  1644.7407   2   6   0.3710   0.3406   0.8113  -0.2632  -0.3837   0.4493   0.01    0.0
2023/03/13 15:45:10.000   40.086171603 -105.233578733  1644.6415   2   6   0.3697   0.3387   0.8079  -0.2619  -0.3816   0.4472   0.01    0.0
2023/03/13 15:45:11.000   40.086171549 -105.233578451  1644.5634   2   6   0.3685   0.3370   0.8048  -0.2609  -0.3798   0.4454   0.01    0.0
2023/03/13 15:45:12.000   40.086171281 -105.233578432  1644.4713   2   5   0.3686   0.3372   0.8060  -0.2580  -0.3745   0.4464   0.01    0.0
2023/03/13 15:45:13.000   40.086171489 -105.233577858  1644.4998   2   5   0.3673   0.3350   0.8027  -0.2559  -0.3709   0.4443   0.01    0.0
2023/03/13 15:45:14.000   40.086170860 -105.233577273  1644.3854   2   5   0.3661   0.3330   0.7994  -0.2540  -0.3676   0.4424   0.01    0.0
2023/03/13 15:45:15.000   40.086170934 -105.233576769  1644.3335   2   5   0.3649   0.3311   0.7963  -0.2520  -0.3643   0.4404   0.01    0.0
2023/03/13 15:45:16.000   40.086170910 -105.233576756  1644.1928   2   6   0.3627   0.3273   0.7891  -0.2521  -0.3649   0.4360   0.01    0.0
2023/03/13 15:45:17.000   40.086170285 -105.233576301  1644.1189   2   6   0.3611   0.3249   0.7852  -0.2503  -0.3620   0.4334   0.01    0.0
2023/03/13 15:45:18.000   40.086169802 -105.233575960  1643.9882   2   6   0.3601   0.3235   0.7826  -0.2496  -0.3607   0.4319   0.01    0.0
2023/03/13 15:45:19.000   40.086169637 -105.233575704  1643.9673   2   6   0.3591   0.3221   0.7799  -0.2488  -0.3593   0.4303   0.01    0.0
2023/03/13 15:45:20.000   40.086169394 -105.233575278  1643.8885   2   7   0.3571   0.3194   0.7750  -0.2465  -0.3556   0.4269   0.01    0.0
2023/03/13 15:45:21.000   40.086168841 -105.233574875  1643.7679   2   6   0.3565   0.3173   0.7708  -0.2453  -0.3516   0.4229   0.01    0.0
2023/03/13 15:45:22.000   40.086168542 -105.233574532  1643.6741   2   6   0.3539   0.3148   0.7671  -0.2429  -0.3496   0.4214   0.01    0.0
2023/03/13 15:45:23.000   40.086168557 -105.233574217  1643.6474   2   6   0.3525   0.3127   0.7636  -0.2414  -0.3471   0.4191   0.01    0.0
2023/03/13 15:45:24.000   40.086168227 -105.233573942  1643.5588   2   6   0.3512   0.3106   0.7602  -0.2399  -0.3446   0.4169   0.01    0.0
2023/03/13 15:45:25.000   40.086167808 -105.233573455  1643.5015   2   6   0.3498   0.3086   0.7568  -0.2384  -0.3422   0.4147   0.01    0.0
2023/03/13 15:45:26.000   40.086167434 -105.233572923  1643.3771   2   6   0.3485   0.3066   0.7534  -0.2370  -0.3399   0.4126   0.01    0.0
2023/03/13 15:45:27.000   40.086167152 -105.233572422  1643.2897   2   6   0.3472   0.3046   0.7501  -0.2356  -0.3376   0.4105   0.01    0.0
2023/03/13 15:45:28.000   40.086166795 -105.233572043  1643.2451   2   6   0.3459   0.3027   0.7468  -0.2342  -0.3353   0.4084   0.01    0.0
2023/03/13 15:45:29.000   40.086166652 -105.233571900  1643.1751   2   6   0.3451   0.3016   0.7447  -0.2337  -0.3344   0.4072   0.01    0.0
2023/03/13 15:45:30.000   40.086166242 -105.233571464  1643.0750   2   6   0.3448   0.2999   0.7412  -0.2329  -0.3310   0.4036   0.01    0.0
2023/03/13 15:45:31.000   40.086166104 -105.233571301  1643.0300   2   7   0.3437   0.2983   0.7382  -0.2318  -0.3293   0.4019   0.01    0.0
2023/03/13 15:45:32.000   40.086165955 -105.233571192  1642.9950   2   6   0.3429   0.2974   0.7357  -0.2314  -0.3287   0.4012   0.01    0.0
2023/03/13 15:45:33.000   40.086165630 -105.233570652  1642.9307   2   6   0.3416   0.2956   0.7325  -0.2301  -0.3266   0.3994   0.01    0.0
2023/03/13 15:45:34.000   40.086165563 -105.233570414  1642.8886   2   6   0.3405   0.2939   0.7296  -0.2290  -0.3248   0.3978   0.01    0.0
2023/03/13 15:45:35.000   40.086165116 -105.233570134  1642.8042   2   7   0.3393   0.2922   0.7262  -0.2277  -0.3226   0.3957   0.01    0.0
2023/03/13 15:45:36.000   40.086164667 -105.233569918  1642.6916   2   6   0.3405   0.2909   0.7288  -0.2239  -0.3165   0.3984   0.01    0.0
2023/03/13 15:45:37.000   40.086164605 -105.233569466  1642.6527   2   6   0.3375   0.2888   0.7208  -0.2249  -0.3172   0.3913   0.01    0.0
2023/03/13 15:45:38.000   40.086164399 -105.233569214  1642.5497   2   6   0.3363   0.2873   0.7176  -0.2238  -0.3156   0.3901   0.01    0.0
2023/03/13 15:45:39.000   40.086163664 -105.233569124  1642.4085   2   5   0.3394   0.2866   0.7220  -0.2203  -0.3105   0.3955   0.01    0.0
2023/03/13 15:45:40.000   40.086164380 -105.233568588  1642.5550   2   5   0.3386   0.2854   0.7198  -0.2190  -0.3082   0.3943   0.01    0.0
2023/03/13 15:45:41.000   40.086163872 -105.233568618  1642.4350   2   7   0.3334   0.2828   0.7099  -0.2198  -0.3088   0.3857   0.01    0.0
2023/03/13 15:45:42.000   40.086163771 -105.233568558  1642.3893   2   7   0.3325   0.2816   0.7073  -0.2191  -0.3076   0.3844   0.01    0.0
2023/03/13 15:45:43.000   40.086163540 -105.233568482  1642.3368   2   7   0.3311   0.2796   0.7037  -0.2174  -0.3049   0.3820   0.01    0.0
2023/03/13 15:45:44.000   40.086163269 -105.233568199  1642.2767   2   7   0.3298   0.2778   0.7003  -0.2160  -0.3025   0.3798   0.01    0.0
2023/03/13 15:45:45.000   40.086162912 -105.233568126  1642.2515   2   7   0.3285   0.2760   0.6970  -0.2145  -0.3001   0.3777   0.01    0.0
2023/03/13 15:45:46.000   40.086162668 -105.233568043  1642.1590   2   7   0.3272   0.2742   0.6937  -0.2131  -0.2977   0.3755   0.01    0.0
2023/03/13 15:45:47.000   40.086162324 -105.233567754  1642.0968   2   7   0.3259   0.2724   0.6905  -0.2116  -0.2953   0.3733   0.01    0.0
2023/03/13 15:45:48.000   40.086162096 -105.233567623  1642.0506   2   6   0.3249   0.2710   0.6878  -0.2107  -0.2937   0.3717   0.01    0.0
2023/03/13 15:45:49.000   40.086161883 -105.233567461  1641.9577   2   5   0.3264   0.2706   0.6918  -0.2079  -0.2888   0.3752   0.01    0.0
2023/03/13 15:45:50.000   40.086161680 -105.233567264  1641.9149   2   6   0.3234   0.2687   0.6836  -0.2088  -0.2904   0.3693   0.01    0.0
2023/03/13 15:45:51.000   40.086161581 -105.233567012  1641.9185   2   6   0.3225   0.2674   0.6813  -0.2080  -0.2889   0.3679   0.01    0.0
2023/03/13 15:45:52.000   40.086161328 -105.233566862  1641.8428   2   6   0.3216   0.2662   0.6789  -0.2072  -0.2875   0.3665   0.01    0.0
2023/03/13 15:45:53.000   40.086161125 -105.233566643  1641.7923   2   6   0.3208   0.2650   0.6766  -0.2064  -0.2861   0.3651   0.01    0.0
2023/03/13 15:45:54.000   40.086160675 -105.233566427  1641.7268   2   6   0.3203   0.2643   0.6751  -0.2063  -0.2858   0.3645   0.01    0.0
2023/03/13 15:45:55.000   40.086160691 -105.233566505  1641.7040   2   6   0.3193   0.2629   0.6720  -0.2053  -0.2838   0.3630   0.01    0.0
2023/03/13 15:45:56.000   40.086160528 -105.233566637  1641.6998   2   7   0.3179   0.2611   0.6684  -0.2038  -0.2811   0.3609   0.01    0.0
2023/03/13 15:45:57.000   40.086160313 -105.233566560  1641.6802   2   6   0.3171   0.2599   0.6661  -0.2031  -0.2798   0.3595   0.01    0.0
2023/03/13 15:45:58.000   40.086159975 -105.233566407  1641.5686   2   6   0.3161   0.2587   0.6635  -0.2023  -0.2783   0.3583   0.01    0.0
2023/03/13 15:45:59.000   40.086160063 -105.233566393  1641.5216   2   6   0.3154   0.2575   0.6612  -0.2015  -0.2769   0.3569   0.01    0.0
2023/03/13 15:46:00.000   40.086159557 -105.233566265  1641.4486   2   7   0.3140   0.2560   0.6581  -0.2003  -0.2748   0.3551   0.01    0.0
2023/03/13 15:46:01.000   40.086159262 -105.233566163  1641.4183   2   7   0.3129   0.2550   0.6557  -0.1994  -0.2736   0.3536   0.01    0.0
2023/03/13 15:46:02.000   40.086159185 -105.233566077  1641.3770   2   6   0.3120   0.2542   0.6536  -0.1989  -0.2728   0.3524   0.01    0.0
2023/03/13 15:46:03.000   40.086159199 -105.233566087  1641.3496   2   6   0.3117   0.2536   0.6519  -0.1988  -0.2723   0.3517   0.01    0.0
2023/03/13 15:46:04.000   40.086158818 -105.233565953  1641.3454   2   6   0.3110   0.2529   0.6503  -0.1984  -0.2717   0.3509   0.01    0.0
2023/03/13 15:46:05.000   40.086158779 -105.233565852  1641.2917   2   6   0.3096   0.2520   0.6479  -0.1975  -0.2706   0.3491   0.01    0.0
2023/03/13 15:46:06.000   40.086158588 -105.233565674  1641.2382   2   7   0.3083   0.2509   0.6448  -0.1965  -0.2690   0.3472   0.01    0.0
2023/03/13 15:46:07.000   40.086158210 -105.233565619  1641.1701   2   7   0.3074   0.2494   0.6415  -0.1952  -0.2667   0.3452   0.01    0.0
2023/03/13 15:46:08.000   40.086158338 -105.233565592  1641.1622   2   7   0.3062   0.2479   0.6387  -0.1940  -0.2647   0.3433   0.01    0.0
2023/03/13 15:46:09.000   40.086158002 -105.233565449  1641.0447   2   7   0.3041   0.2463   0.6344  -0.1922  -0.2618   0.3401   0.01    0.0
2023/03/13 15:46:10.000   40.086157852 -105.233565244  1641.0395   2   6   0.3035   0.2452   0.6315  -0.1914  -0.2602   0.3387   0.01    0.0
2023/03/13 15:46:11.000   40.086157541 -105.233564906  1640.9602   2   7   0.3024   0.2438   0.6289  -0.1903  -0.2584   0.3369   0.01    0.0
2023/03/13 15:46:12.000   40.086157410 -105.233564711  1640.9184   2   7   0.3012   0.2424   0.6262  -0.1890  -0.2565   0.3350   0.01    0.0
2023/03/13 15:46:13.000   40.086157151 -105.233564361  1640.8546   2   7   0.3000   0.2410   0.6230  -0.1878  -0.2542   0.3332   0.01    0.0
2023/03/13 15:46:14.000   40.086157059 -105.233564153  1640.8041   2   7   0.2987   0.2396   0.6200  -0.1866  -0.2521   0.3314   0.01    0.0
2023/03/13 15:46:15.000   40.086157040 -105.233564165  1640.7599   2   7   0.2979   0.2387   0.6180  -0.1859  -0.2511   0.3300   0.01    0.0
2023/03/13 15:46:16.000   40.086156762 -105.233563961  1640.7478   2   7   0.2967   0.2377   0.6156  -0.1849  -0.2497   0.3285   0.01    0.0
2023/03/13 15:46:17.000   40.086156693 -105.233563781  1640.7513   2   7   0.2956   0.2366   0.6132  -0.1839  -0.2482   0.3270   0.01    0.0
2023/03/13 15:46:18.000   40.086156564 -105.233563730  1640.6388   2   7   0.2943   0.2356   0.6108  -0.1829  -0.2468   0.3254   0.01    0.0
2023/03/13 15:46:19.000   40.086156078 -105.233563258  1640.5930   2   7   0.2931   0.2345   0.6084  -0.1818  -0.2454   0.3237   0.01    0.0
2023/03/13 15:46:20.000   40.086155887 -105.233562958  1640.5288   2   7   0.2918   0.2335   0.6059  -0.1807  -0.2439   0.3220   0.01    0.0
2023/03/13 15:46:21.000   40.086155532 -105.233562632  1640.4311   2   7   0.2904   0.2320   0.6025  -0.1793  -0.2414   0.3198   0.01    0.0
2023/03/13 15:46:22.000   40.086155179 -105.233562331  1640.3561   2   7   0.2893   0.2308   0.6001  -0.1784  -0.2398   0.3184   0.01    0.0
2023/03/13 15:46:23.000   40.086154867 -105.233561946  1640.2978   2   7   0.2881   0.2295   0.5972  -0.1772  -0.2377   0.3166   0.01    0.0
2023/03/13 15:46:24.000   40.086154729 -105.233561693  1640.2532   2   7   0.2872   0.2282   0.5947  -0.1761  -0.2359   0.3149   0.01    0.0
2023/03/13 15:46:25.000   40.086154668 -105.233561501  1640.2024   2   7   0.2857   0.2270   0.5919  -0.1748  -0.2340   0.3129   0.01    0.0
2023/03/13 15:46:26.000   40.086154501 -105.233561281  1640.1763   2   7   0.2843   0.2257   0.5888  -0.1735  -0.2319   0.3109   0.01    0.0
2023/03/13 15:46:27.000   40.086154132 -105.233561401  1640.0600   2   6   0.2847   0.2269   0.5912  -0.1708  -0.2260   0.3124   0.01    0.0
2023/03/13 15:46:28.000   40.086154254 -105.233560964  1640.1015   2   7   0.2823   0.2238   0.5842  -0.1714  -0.2284   0.3079   0.01    0.0
2023/03/13 15:46:29.000   40.086153675 -105.233560893  1639.9531   2   6   0.2818   0.2243   0.5852  -0.1680  -0.2214   0.3083   0.01    0.0
2023/03/13 15:46:30.000   40.086153336 -105.233560810  1639.9121   2   5   0.2816   0.2246   0.5828  -0.1657  -0.2191   0.3068   0.01    0.0
2023/03/13 15:46:31.000   40.086153614 -105.233560467  1639.9180   2   6   0.2799   0.2228   0.5804  -0.1658  -0.2176   0.3051   0.01    0.0
2023/03/13 15:46:32.000   40.086153332 -105.233560150  1639.8784   2   7   0.2786   0.2200   0.5740  -0.1668  -0.2204   0.3016   0.01    0.0
2023/03/13 15:46:33.000   40.086153446 -105.233560169  1639.8348   2   7   0.2773   0.2187   0.5716  -0.1655  -0.2186   0.2997   0.01    0.0
2023/03/13 15:46:34.000   40.086153286 -105.233560270  1639.8202   2   5   0.3142   0.2210   0.5921  -0.1497  -0.2025   0.3345   0.01    0.0
2023/03/13 15:46:35.000   40.086153622 -105.233560117  1639.8591   2   5   0.3150   0.2202   0.5921  -0.1488  -0.2008   0.3351   0.01    0.0
2023/03/13 15:46:36.000   40.086153268 -105.233559827  1639.8475   2   6   0.2747   0.2178   0.5685  -0.1598  -0.2076   0.2962   0.01    0.0
2023/03/13 15:46:37.000   40.086153059 -105.233559801  1639.7653   2   6   0.2760   0.2156   0.5619  -0.1627  -0.2100   0.2920   0.01    0.0
2023/03/13 15:46:38.000   40.086152642 -105.233559677  1639.6298   2   6   0.2716   0.2143   0.5585  -0.1597  -0.2090   0.2896   0.01    0.0
2023/03/13 15:46:39.000   40.086152425 -105.233559310  1639.5298   2   7   0.2731   0.2163   0.5611  -0.1627  -0.2143   0.2929   0.01    0.0
2023/03/13 15:46:40.000   40.086152525 -105.233559539  1639.5542   2   7   0.2697   0.2131   0.5549  -0.1583  -0.2079   0.2874   0.01    0.0
2023/03/13 15:46:41.000   40.086152672 -105.233559789  1639.5677   2   7   0.2690   0.2114   0.5521  -0.1573  -0.2054   0.2860   0.01    0.0
2023/03/13 15:46:42.000   40.086152443 -105.233559525  1639.5249   2   7   0.2668   0.2098   0.5485  -0.1551  -0.2024   0.2829   0.01    0.0
2023/03/13 15:46:43.000   40.086152260 -105.233559458  1639.4715   2   7   0.2650   0.2087   0.5456  -0.1534  -0.2004   0.2803   0.01    0.0
2023/03/13 15:46:44.000   40.086151980 -105.233559420  1639.4187   2   7   0.2631   0.2072   0.5421  -0.1516  -0.1975   0.2775   0.01    0.0
2023/03/13 15:46:45.000   40.086151906 -105.233559353  1639.3587   2   7   0.2613   0.2059   0.5386  -0.1499  -0.1948   0.2747   0.01    0.0
2023/03/13 15:46:46.000   40.086151770 -105.233559363  1639.3275   2   7   0.2595   0.2045   0.5351  -0.1481  -0.1921   0.2718   0.01    0.0
2023/03/13 15:46:47.000   40.086151388 -105.233559138  1639.2375   2   6   0.2579   0.2036   0.5323  -0.1467  -0.1903   0.2694   0.01    0.0
2023/03/13 15:46:48.000   40.086151308 -105.233559281  1639.2022   2   6   0.2565   0.2026   0.5297  -0.1456  -0.1885   0.2674   0.01    0.0
2023/03/13 15:46:49.000   40.086150954 -105.233559047  1639.1140   2   6   0.2550   0.2018   0.5270  -0.1443  -0.1869   0.2652   0.01    0.0
2023/03/13 15:46:50.000   40.086150677 -105.233559045  1639.0313   2   7   0.2535   0.2008   0.5243  -0.1431  -0.1852   0.2630   0.01    0.0
2023/03/13 15:46:51.000   40.086150479 -105.233559045  1638.9895   2   7   0.2516   0.1997   0.5206  -0.1413  -0.1826   0.2599   0.01    0.0
2023/03/13 15:46:52.000   40.086150365 -105.233559036  1638.9513   2   7   0.2497   0.1983   0.5166  -0.1395  -0.1796   0.2567   0.01    0.0
2023/03/13 15:46:53.000   40.086150177 -105.233558992  1638.8799   2   7   0.2477   0.1972   0.5128  -0.1376  -0.1769   0.2533   0.01    0.0
2023/03/13 15:46:54.000   40.086149985 -105.233558951  1638.8288   2   7   0.2458   0.1961   0.5090  -0.1358  -0.1743   0.2501   0.01    0.0
2023/03/13 15:46:55.000   40.086149945 -105.233558848  1638.7847   2   7   0.2446   0.1951   0.5058  -0.1345  -0.1721   0.2477   0.01    0.0
2023/03/13 15:46:56.000   40.086149719 -105.233558743  1638.7154   2   7   0.2431   0.1940   0.5029  -0.1330  -0.1699   0.2451   0.01    0.0
2023/03/13 15:46:57.000   40.086149242 -105.233558571  1638.6131   2   7   0.2406   0.1926   0.4988  -0.1308  -0.1666   0.2412   0.01    0.0
2023/03/13 15:46:58.000   40.086149121 -105.233558523  1638.5572   2   6   0.2387   0.1915   0.4946  -0.1291  -0.1637   0.2378   0.01    0.0
2023/03/13 15:46:59.000   40.086148887 -105.233558481  1638.4750   2   7   0.2369   0.1904   0.4902  -0.1274  -0.1608   0.2343   0.01    0.0
2023/03/13 15:47:00.000   40.086148532 -105.233558309  1638.3957   2   7   0.2347   0.1891   0.4854  -0.1254  -0.1573   0.2304   0.01    0.0
2023/03/13 15:47:01.000   40.086148011 -105.233558057  1638.2862   2   7   0.2327   0.1878   0.4806  -0.1234  -0.1539   0.2264   0.01    0.0
2023/03/13 15:47:02.000   40.086147917 -105.233558000  1638.2298   2   7   0.2315   0.1866   0.4769  -0.1218  -0.1511   0.2237   0.01    0.0
2023/03/13 15:47:03.000   40.086147741 -105.233557980  1638.1844   2   7   0.2302   0.1858   0.4760  -0.1206  -0.1502   0.2219   0.01    0.0
2023/03/13 15:47:04.000   40.086147538 -105.233557773  1638.1442   2   7   0.2385   0.1956   0.4969  -0.1361  -0.1778   0.2420   0.01    0.0
2023/03/13 15:47:05.000   40.086147621 -105.233558051  1638.1455   2   6   0.4597   0.4682   1.1354  -0.4310  -0.6828   0.6781   0.01    0.0
2023/03/13 15:47:06.000   40.086147303 -105.233557798  1638.1142   2   4   0.6661   0.3018   2.6487   0.1195  -0.6516  -1.1723   0.01    0.0
2023/03/13 15:47:07.000   40.086148646 -105.233559564  1638.4178   2   6   0.8933   0.9512   2.2883  -0.9056  -1.4532   1.4077   0.01    0.0
2023/03/13 15:47:08.000   40.086147937 -105.233558617  1638.1673   2   5   0.5376   0.5556   1.3472  -0.5191  -0.8269   0.8137   0.01    0.0
2023/03/13 15:47:09.000   40.086147869 -105.233555701  1638.2327   2   5   0.6014   1.9599   1.4313  -0.8596  -0.0356   0.7772   0.01    0.0
2023/03/13 15:47:10.000   40.086148519 -105.233559383  1638.2792   2   6   0.5000   0.5107   1.2409  -0.4758  -0.7546   0.7475   0.01    0.0
2023/03/13 15:47:11.000   40.086148461 -105.233559444  1638.2528   2   6   0.4901   0.4992   1.2151  -0.4646  -0.7365   0.7309   0.01    0.0
2023/03/13 15:47:12.000   40.086148359 -105.233559266  1638.1954   2   6   0.4826   0.4900   1.1946  -0.4558  -0.7222   0.7179   0.01    0.0
2023/03/13 15:47:13.000   40.086148767 -105.233559709  1638.2300   2   4   0.4843   0.4910   1.1957  -0.4575  -0.7236   0.7197   0.01    0.0
2023/03/13 15:47:14.000   40.086149527 -105.233560652  1638.3756   2   4   0.4791   0.4840   1.1784  -0.4511  -0.7120   0.7097   0.01    0.0
2023/03/13 15:47:15.000   40.086148404 -105.233559450  1638.1245   2   6   0.4717   0.4750   1.1582  -0.4425  -0.6979   0.6969   0.01    0.0
2023/03/13 15:47:16.000   40.086148326 -105.233559392  1638.0860   2   4   0.4715   0.4745   1.1565  -0.4422  -0.6971   0.6963   0.01    0.0
2023/03/13 15:47:17.000   40.086149288 -105.233560851  1638.3526   2   6   0.5736   0.5919   1.4358  -0.5579  -0.8873   0.8734   0.01    0.0
2023/03/13 15:47:18.000   40.086148765 -105.233560137  1638.1984   2   4   0.4547   0.4546   1.1112  -0.4229  -0.6655   0.6672   0.01    0.0
2023/03/13 15:47:19.000   40.086148726 -105.233560040  1638.1325   2   4   0.4515   0.4503   1.1010  -0.4190  -0.6586   0.6613   0.01    0.0
2023/03/13 15:47:20.000   40.086148502 -105.233559649  1637.9784   2   4   0.4484   0.4462   1.0910  -0.4153  -0.6519   0.6555   0.01    0.0
2023/03/13 15:47:21.000   40.086148361 -105.233559431  1637.9177   2   4   0.4451   0.4419   1.0808  -0.4114  -0.6450   0.6495   0.01    0.0
2023/03/13 15:47:22.000   40.086148271 -105.233559322  1637.8545   2   4   0.4418   0.4377   1.0711  -0.4075  -0.6384   0.6437   0.01    0.0
2023/03/13 15:47:23.000   40.086147650 -105.233558611  1637.7238   2   4   0.4398   0.4345   1.0628  -0.4049  -0.6331   0.6393   0.01    0.0
2023/03/13 15:47:24.000   40.086147580 -105.233558545  1637.7062   2   4   0.4366   0.4308   1.0545  -0.4013  -0.6273   0.6339   0.01    0.0
2023/03/13 15:47:25.000   40.086147463 -105.233558362  1637.6603   2   4   0.4333   0.4268   1.0450  -0.3975  -0.6209   0.6282   0.01    0.0
2023/03/13 15:47:26.000   40.086146766 -105.233557703  1637.5493   2   4   0.4352   0.4279   1.0458  -0.3993  -0.6223   0.6300   0.01    0.0
2023/03/13 15:47:27.000   40.086147361 -105.233558627  1637.6519   2   4   0.4312   0.4232   1.0355  -0.3948  -0.6150   0.6235   0.01    0.0
2023/03/13 15:47:28.000   40.086147830 -105.233559432  1637.7590   2   6   0.4236   0.4139   1.0145  -0.3858  -0.6001   0.6101   0.01    0.0
2023/03/13 15:47:29.000   40.086148566 -105.233560259  1637.8960   2   6   0.4167   0.4054   0.9953  -0.3776  -0.5865   0.5979   0.01    0.0
2023/03/13 15:47:30.000   40.086149058 -105.233560928  1638.0181   2   6   0.4103   0.3975   0.9775  -0.3700  -0.5739   0.5866   0.01    0.0
2023/03/13 15:47:31.000   40.086149514 -105.233561655  1638.1456   2   6   0.4043   0.3901   0.9609  -0.3629  -0.5621   0.5761   0.01    0.0
2023/03/13 15:47:32.000   40.086149757 -105.233562110  1638.2270   2   6   0.3988   0.3833   0.9454  -0.3563  -0.5511   0.5662   0.01    0.0
2023/03/13 15:47:33.000   40.086149722 -105.233561980  1638.2086   2   6   0.3949   0.3787   0.9353  -0.3518  -0.5438   0.5595   0.01    0.0
2023/03/13 15:47:34.000   40.086149588 -105.233561962  1638.1393   2   6   0.3910   0.3741   0.9246  -0.3473  -0.5364   0.5528   0.01    0.0
2023/03/13 15:47:35.000   40.086149514 -105.233561845  1638.1073   2   6   0.3873   0.3695   0.9141  -0.3429  -0.5290   0.5462   0.01    0.0
2023/03/13 15:47:36.000   40.086149442 -105.233561749  1638.0765   2   6   0.3841   0.3655   0.9048  -0.3390  -0.5224   0.5403   0.01    0.0
2023/03/13 15:47:37.000   40.086149191 -105.233561567  1638.0291   2   6   0.3801   0.3610   0.8945  -0.3346  -0.5152   0.5336   0.01    0.0
2023/03/13 15:47:38.000   40.086148337 -105.233560392  1637.7394   2   7   0.3755   0.3561   0.8810  -0.3295  -0.5065   0.5252   0.01    0.0
2023/03/13 15:47:39.000   40.086147825 -105.233559932  1637.5315   2   7   0.3710   0.3507   0.8667  -0.3241  -0.4970   0.5165   0.01    0.0
2023/03/13 15:47:40.000   40.086147547 -105.233559588  1637.4125   2   7   0.3688   0.3481   0.8598  -0.3216  -0.4926   0.5123   0.01    0.0
2023/03/13 15:47:41.000   40.086147360 -105.233559498  1637.3190   2   6   0.3656   0.3452   0.8530  -0.3183  -0.4878   0.5074   0.01    0.0
2023/03/13 15:47:42.000   40.086147649 -105.233559637  1637.4105   2   5   0.3651   0.3454   0.8499  -0.3157  -0.4828   0.5059   0.01    0.0
2023/03/13 15:47:43.000   40.086147081 -105.233559443  1637.2719   2   5   0.3610   0.3398   0.8413  -0.3121  -0.4775   0.4996   0.01    0.0
2023/03/13 15:47:44.000   40.086146541 -105.233558979  1637.1044   2   4   0.5789   1.9227   1.3472  -0.8325   0.2110   0.7369   0.01    0.0
2023/03/13 15:47:45.000   40.086145994 -105.233557202  1636.9456   2   5   0.6497   0.8135   1.5340  -0.7047  -1.0847   0.9708   0.01    0.0
2023/03/13 15:47:46.000   40.086146552 -105.233557954  1637.0681   2   7   0.3542   0.3329   0.8159  -0.3042  -0.4614   0.4849   0.01    0.0
2023/03/13 15:47:47.000   40.086146540 -105.233557890  1637.1009   2   5   0.3510   0.3299   0.8128  -0.3008  -0.4576   0.4809   0.01    0.0
2023/03/13 15:47:48.000   40.086146627 -105.233558127  1637.0780   2   6   0.3480   0.3252   0.8017  -0.2967  -0.4497   0.4747   0.01    0.0
2023/03/13 15:47:49.000   40.086146257 -105.233558316  1636.9610   2   6   0.3462   0.3249   0.7984  -0.2919  -0.4416   0.4721   0.01    0.0
2023/03/13 15:47:50.000   40.086146137 -105.233558397  1636.9602   2   5   0.3473   0.3223   0.7910  -0.2902  -0.4389   0.4676   0.01    0.0
2023/03/13 15:47:51.000   40.086146156 -105.233558435  1636.9108   2   5   0.3420   0.3201   0.7909  -0.2881  -0.4348   0.4654   0.01    0.0
2023/03/13 15:47:52.000   40.086145962 -105.233558392  1636.8527   2   6   0.3405   0.3181   0.7870  -0.2862  -0.4319   0.4627   0.01    0.0
2023/03/13 15:47:53.000   40.086146127 -105.233558564  1636.8988   2   7   0.3376   0.3148   0.7757  -0.2834  -0.4276   0.4568   0.01    0.0
2023/03/13 15:47:54.000   40.086146043 -105.233558545  1636.8791   2   6   0.3359   0.3131   0.7735  -0.2818  -0.4250   0.4542   0.01    0.0
2023/03/13 15:47:55.000   40.086146062 -105.233558589  1636.8619   2   7   0.3343   0.3112   0.7671  -0.2801  -0.4223   0.4511   0.01    0.0
2023/03/13 15:47:56.000   40.086146054 -105.233558697  1636.8473   2   6   0.3333   0.3101   0.7639  -0.2793  -0.4207   0.4491   0.01    0.0
2023/03/13 15:47:57.000   40.086146163 -105.233558832  1636.8423   2   6   0.3323   0.3089   0.7609  -0.2783  -0.4189   0.4473   0.01    0.0
2023/03/13 15:47:58.000   40.086146181 -105.233558842  1636.7829   2   6   0.3306   0.3067   0.7562  -0.2762  -0.4156   0.4442   0.01    0.0
2023/03/13 15:47:59.000   40.086145850 -105.233558265  1636.6986   2   7   0.3281   0.2979   0.7500  -0.2718  -0.4099   0.4401   0.01    0.0
2023/03/13 15:48:00.000   40.086145695 -105.233558239  1636.6393   2   6   0.3265   0.2957   0.7454  -0.2698  -0.4062   0.4371   0.01    0.0
2023/03/13 15:48:01.000   40.086145453 -105.233558174  1636.5919   2   7   0.3246   0.2924   0.7399  -0.2673  -0.4022   0.4336   0.01    0.0
2023/03/13 15:48:02.000   40.086145580 -105.233558352  1636.5413   2   7   0.3227   0.2897   0.7343  -0.2649  -0.3981   0.4301   0.01    0.0
2023/03/13 15:48:03.000   40.086145538 -105.233558277  1636.5725   2   5   0.3232   0.2901   0.7355  -0.2623  -0.3935   0.4312   0.01    0.0
2023/03/13 15:48:04.000   40.086145379 -105.233558355  1636.5204   2   6   0.3212   0.2877   0.7296  -0.2631  -0.3946   0.4274   0.01    0.0
2023/03/13 15:48:05.000   40.086145438 -105.233558562  1636.5252   2   4   0.3245   0.2907   0.7340  -0.2668  -0.3992   0.4318   0.01    0.0
2023/03/13 15:48:06.000   40.086144869 -105.233557843  1636.3846   2   4   0.3242   0.2904   0.7329  -0.2666  -0.3987   0.4314   0.01    0.0
2023/03/13 15:48:07.000   40.086144003 -105.233556676  1636.0857   2   4   0.5317   0.5340   1.2988  -0.5099  -0.7998   0.7988   0.01    0.0
2023/03/13 15:48:08.000   40.086144220 -105.233557074  1636.1443   2   5   1.1517   1.2089   2.9025  -1.1696  -1.8588   1.8138   0.01    0.0
2023/03/13 15:48:09.000   40.086150289 -105.233565541  1637.8551   2   6   1.3194   1.3889   3.3361  -1.3448  -2.1401   2.0854   0.01    0.0
2023/03/13 15:48:11.000   40.086145992 -105.233561501  1636.5204   2   6   0.4534   0.8265   0.9463  -0.5483  -0.7290   0.6075   0.01    0.0
2023/03/13 15:48:12.000   40.086145042 -105.233558631  1636.2329   2   7   0.3808   0.4694   0.8638  -0.3695  -0.5351   0.5249   0.01    0.0
2023/03/13 15:48:13.000   40.086145182 -105.233559121  1636.3030   2   4   0.5989   0.7279   1.4203  -0.6296  -0.9612   0.8927   0.01    0.0
2023/03/13 15:48:14.000   40.086144618 -105.233558392  1636.1165   2   6   0.3759   0.4475   0.8563  -0.3590  -0.5236   0.5186   0.01    0.0
2023/03/13 15:48:15.000   40.086144045 -105.233558352  1635.9275   2   6   0.3747   0.4428   0.8548  -0.3526  -0.5124   0.5172   0.01    0.0
2023/03/13 15:48:16.000   40.086144534 -105.233558177  1636.0406   2   6   0.3707   0.4389   0.8422  -0.3518  -0.5116   0.5096   0.01    0.0
2023/03/13 15:48:17.000   40.086144713 -105.233558767  1636.1423   2   7   0.3679   0.4338   0.8357  -0.3478  -0.5054   0.5051   0.01    0.0
2023/03/13 15:48:18.000   40.086144773 -105.233558986  1636.1143   2   7   0.3654   0.4290   0.8297  -0.3441  -0.4998   0.5010   0.01    0.0
2023/03/13 15:48:19.000   40.086144767 -105.233559191  1636.1127   2   6   0.3640   0.4260   0.8260  -0.3420  -0.4965   0.4986   0.01    0.0
2023/03/13 15:48:20.000   40.086144451 -105.233558753  1635.9389   2   7   0.3608   0.4208   0.8168  -0.3376  -0.4891   0.4927   0.01    0.0
2023/03/13 15:48:21.000   40.086143727 -105.233558060  1635.8538   2   7   0.3577   0.4158   0.8081  -0.3334  -0.4821   0.4872   0.01    0.0
2023/03/13 15:48:22.000   40.086143784 -105.233558553  1635.7885   2   8   0.3530   0.4082   0.7962  -0.3268  -0.4715   0.4791   0.01    0.0
2023/03/13 15:48:23.000   40.086143437 -105.233558154  1635.7031   2   7   0.3490   0.4019   0.7856  -0.3213  -0.4624   0.4720   0.01    0.0
2023/03/13 15:48:24.000   40.086143323 -105.233558027  1635.6586   2   7   0.3452   0.3959   0.7755  -0.3160  -0.4537   0.4652   0.01    0.0
2023/03/13 15:48:25.000   40.086143027 -105.233557827  1635.5974   2   5   0.3428   0.3919   0.7695  -0.3126  -0.4485   0.4609   0.01    0.0
2023/03/13 15:48:26.000   40.086143052 -105.233557772  1635.5917   2   6   0.3405   0.3879   0.7634  -0.3094  -0.4432   0.4569   0.01    0.0
2023/03/13 15:48:27.000   40.086143006 -105.233557927  1635.5568   2   7   0.3381   0.3837   0.7573  -0.3061  -0.4379   0.4529   0.01    0.0
2023/03/13 15:48:28.000   40.086142937 -105.233557866  1635.5258   2   7   0.3370   0.3814   0.7534  -0.3045  -0.4351   0.4507   0.01    0.0
2023/03/13 15:48:29.000   40.086143020 -105.233558204  1635.5317   2   7   0.3335   0.3760   0.7439  -0.2996  -0.4270   0.4444   0.01    0.0
2023/03/13 15:48:30.000   40.086143224 -105.233557974  1635.5597   2   6   0.3335   0.3789   0.7457  -0.2953  -0.4177   0.4450   0.01    0.0
2023/03/13 15:48:31.000   40.086142901 -105.233557832  1635.5313   2   6   0.3319   0.3768   0.7432  -0.2947  -0.4146   0.4421   0.01    0.0
2023/03/13 15:48:32.000   40.086142811 -105.233557862  1635.4953   2   6   0.3308   0.3748   0.7396  -0.2934  -0.4123   0.4402   0.01    0.0
2023/03/13 15:48:33.000   40.086142749 -105.233558245  1635.4383   2   7   0.3286   0.3657   0.7300  -0.2919  -0.4142   0.4357   0.01    0.0
2023/03/13 15:48:34.000   40.086142825 -105.233558410  1635.4575   2   6   0.3267   0.3626   0.7249  -0.2895  -0.4099   0.4323   0.01    0.0
2023/03/13 15:48:36.000   40.086155305 -105.233559143  1634.5377   2   4   2.2998   0.3644   1.6985  -0.4756  -0.2613  -1.8209   0.01    0.0
2023/03/13 15:48:37.000   40.086165254 -105.233559755  1633.7836   2   4   2.4372   0.3640   1.7794  -0.5018  -0.2220  -1.9358   0.01    0.0
2023/03/13 15:48:38.000   40.086157234 -105.233559460  1634.3204   2   4   1.6335   0.3590   1.2905  -0.4047  -0.3270  -1.2390   0.01    0.0
2023/03/13 15:48:39.000   40.086156774 -105.233559507  1634.3853   2   4   1.4076   0.3631   1.1634  -0.3903  -0.3543  -1.0250   0.01    0.0
2023/03/13 15:48:40.000   40.086143301 -105.233558472  1635.2503   2   6   0.3672   0.3593   0.7344  -0.2942  -0.4111   0.4177   0.01    0.0
2023/03/13 15:48:41.000   40.086143073 -105.233558967  1635.4183   2   8   0.3264   0.3465   0.7022  -0.2787  -0.3915   0.4189   0.01    0.0
2023/03/13 15:48:42.000   40.086142845 -105.233558903  1635.4111   2   8   0.3214   0.3408   0.6925  -0.2734  -0.3829   0.4126   0.01    0.0
2023/03/13 15:48:43.000   40.086143083 -105.233559075  1635.4353   2   6   0.3196   0.3379   0.6875  -0.2710  -0.3788   0.4092   0.01    0.0
2023/03/13 15:48:44.000   40.086143149 -105.233559147  1635.4205   2   6   0.3183   0.3352   0.6842  -0.2691  -0.3755   0.4067   0.01    0.0
2023/03/13 15:48:45.000   40.086143107 -105.233559120  1635.3806   2   8   0.3157   0.3315   0.6772  -0.2659  -0.3700   0.4030   0.01    0.0
2023/03/13 15:48:46.000   40.086143256 -105.233559319  1635.3975   2   6   0.3137   0.3286   0.6720  -0.2633  -0.3657   0.3994   0.01    0.0
2023/03/13 15:48:47.000   40.086143337 -105.233559430  1635.4038   2   4   0.3129   0.3271   0.6702  -0.2622  -0.3642   0.3981   0.01    0.0
2023/03/13 15:48:48.000   40.086143512 -105.233559669  1635.4310   2   6   0.3116   0.3246   0.6670  -0.2604  -0.3613   0.3959   0.01    0.0
2023/03/13 15:48:49.000   40.086143465 -105.233559840  1635.4506   2   6   0.3104   0.3224   0.6641  -0.2587  -0.3587   0.3939   0.01    0.0
2023/03/13 15:48:50.000   40.086143531 -105.233559786  1635.4045   2   7   0.3079   0.3181   0.6558  -0.2549  -0.3517   0.3889   0.01    0.0
2023/03/13 15:48:51.000   40.086143358 -105.233559493  1635.3332   2   7   0.3066   0.3156   0.6499  -0.2530  -0.3475   0.3856   0.01    0.0
2023/03/13 15:48:52.000   40.086143578 -105.233559417  1635.3758   2   6   0.3125   0.3924   0.6547  -0.2761  -0.3652   0.3918   0.01    0.0
2023/03/13 15:48:53.000   40.086143319 -105.233559550  1635.3254   2   5   0.3129   0.3937   0.6536  -0.2782  -0.3667   0.3917   0.01    0.0
2023/03/13 15:48:54.000   40.086143231 -105.233559532  1635.1936   2   4   0.4375   0.4319   1.2458  -0.1444   0.2449   0.6913   0.01    0.0
2023/03/13 15:48:55.000   40.086136690 -105.233525866  1634.6119   2   4   1.0500   1.4440   2.9691  -0.7966  -0.8709   1.7211   0.01    0.0
2023/03/13 15:48:56.000   40.086141948 -105.233556718  1635.0243   2   6   0.2999   0.3095   0.6393  -0.2385  -0.3234   0.3763   0.01    0.0
2023/03/13 15:48:59.000   40.086136373 -105.233528275  1634.4795   2   5   0.4901   1.6324   0.6963  -0.8244  -0.7490   0.5006   0.01    0.0
2023/03/13 15:49:00.000   40.086133833 -105.233526655  1633.9409   2   5   0.3948   1.1648   0.6527  -0.5918  -0.5474   0.4266   0.01    0.0
2023/03/13 15:49:01.000   40.086139358 -105.233556867  1634.2841   2   8   0.2917   0.2954   0.6196  -0.2281  -0.3094   0.3626   0.01    0.0
2023/03/13 15:49:02.000   40.086139091 -105.233555205  1634.2622   2   7   0.2879   0.2884   0.6094  -0.2236  -0.3027   0.3556   0.01    0.0
2023/03/13 15:49:03.000   40.086138988 -105.233554205  1634.2579   2   7   0.2866   0.2840   0.6060  -0.2213  -0.2997   0.3534   0.01    0.0
2023/03/13 15:49:04.000   40.086138992 -105.233553450  1634.2492   2   7   0.2834   0.2800   0.5988  -0.2180  -0.2948   0.3480   0.01    0.0
2023/03/13 15:49:05.000   40.086138698 -105.233552672  1634.1697   2   8   0.2796   0.2745   0.5893  -0.2128  -0.2865   0.3411   0.01    0.0
2023/03/13 15:49:06.000   40.086138586 -105.233552084  1634.1335   2   7   0.2775   0.2710   0.5849  -0.2099  -0.2825   0.3378   0.01    0.0
2023/03/13 15:49:07.000   40.086138657 -105.233551188  1634.2083   2   7   0.2771   0.2676   0.5850  -0.2051  -0.2751   0.3377   0.01    0.0
2023/03/13 15:49:08.000   40.086138914 -105.233551079  1634.2059   2   7   0.2743   0.2649   0.5766  -0.2039  -0.2726   0.3320   0.01    0.0
2023/03/13 15:49:09.000   40.086139227 -105.233551330  1634.2549   2   7   0.2770   0.2710   0.5775  -0.2103  -0.2803   0.3349   0.01    0.0
2023/03/13 15:49:10.000   40.086139447 -105.233551449  1634.2746   2   7   0.2734   0.2677   0.5691  -0.2063  -0.2739   0.3286   0.01    0.0
2023/03/13 15:49:11.000   40.086139066 -105.233552188  1634.1913   2   6   0.2716   0.2785   0.5656  -0.2021  -0.2630   0.3255   0.01    0.0
2023/03/13 15:49:12.000   40.086139207 -105.233551533  1634.2727   2   5   0.2711   0.2794   0.5642  -0.2014  -0.2606   0.3245   0.01    0.0
2023/03/13 15:49:13.000   40.086139808 -105.233549725  1634.5314   2   4   0.3492   0.6848   1.1843   0.3123   0.7644   0.5785   0.01    0.0
2023/03/13 15:49:14.000   40.086139637 -105.233550336  1634.4106   2   5   0.7216   1.9230   3.2007   1.1103   2.4349   1.4875   0.01    0.0
2023/03/13 15:49:15.000   40.086135180 -105.233567205  1632.0262   2   5   1.3491   3.7739   6.2453   2.2214   4.8316   2.8854   0.01    0.0
2023/03/13 15:49:16.000   40.086139808 -105.233550251  1634.3809   2   6   0.4488   1.0576   1.7817   0.5713   1.2887   0.8429   0.01    0.0
2023/03/13 15:49:17.000   40.086139901 -105.233550201  1634.3806   2   6   0.3952   0.8689   1.4759   0.4457   1.0296   0.7060   0.01    0.0
2023/03/13 15:49:18.000   40.086139995 -105.233550196  1634.3406   2   6   0.3772   0.8021   1.3695   0.3996   0.9367   0.6586   0.01    0.0
2023/03/13 15:49:19.000   40.086139452 -105.233551432  1634.1382   2   5   0.4301   0.9961   1.6790   0.5312   1.2051   0.7965   0.01    0.0
2023/03/13 15:49:20.000   40.086139209 -105.233551152  1634.1214   2   5   0.3897   0.8487   1.4403   0.4334   1.0017   0.6911   0.01    0.0
2023/03/13 15:49:21.000   40.086139735 -105.233549969  1634.2908   2   6   0.3625   0.7480   1.2806   0.3618   0.8603   0.6193   0.01    0.0
2023/03/13 15:49:22.000   40.086139845 -105.233549029  1634.3499   2   7   0.3487   0.6672   1.1784   0.3147   0.7571   0.5784   0.01    0.0
2023/03/13 15:49:23.000   40.086139808 -105.233548653  1634.3894   2   7   0.3394   0.6157   1.1123   0.2833   0.6896   0.5516   0.01    0.0
2023/03/13 15:49:24.000   40.086140113 -105.233549088  1634.3303   2   6   0.3333   0.5925   1.0735   0.2639   0.6540   0.5342   0.01    0.0
2023/03/13 15:49:25.000   40.086139970 -105.233549321  1634.3215   2   6   0.3278   0.5721   1.0395   0.2466   0.6225   0.5190   0.01    0.0
2023/03/13 15:49:26.000   40.086140170 -105.233549955  1634.3164   2   7   0.3227   0.5538   1.0090   0.2312   0.5945   0.5052   0.01    0.0
2023/03/13 15:49:27.000   40.086139983 -105.233550142  1634.2675   2   6   0.3184   0.5376   0.9824   0.2166   0.5691   0.4934   0.01    0.0
2023/03/13 15:49:28.000   40.086140182 -105.233550738  1634.3136   2   7   0.3144   0.5228   0.9580   0.2036   0.5463   0.4824   0.01    0.0
2023/03/13 15:49:29.000   40.086140290 -105.233551187  1634.3029   2   7   0.3107   0.5093   0.9358   0.1914   0.5254   0.4723   0.01    0.0
2023/03/13 15:49:30.000   40.086140591 -105.233551733  1634.3250   2   7   0.3073   0.4970   0.9155   0.1799   0.5062   0.4631   0.01    0.0
2023/03/13 15:49:31.000   40.086140533 -105.233552111  1634.3092   2   7   0.3043   0.4857   0.8968   0.1690   0.4883   0.4546   0.01    0.0
2023/03/13 15:49:32.000   40.086140522 -105.233552233  1634.3222   2   7   0.3015   0.4753   0.8796   0.1587   0.4718   0.4468   0.01    0.0
2023/03/13 15:49:33.000   40.086140721 -105.233552562  1634.3607   2   7   0.2988   0.4657   0.8636   0.1488   0.4564   0.4396   0.01    0.0
2023/03/13 15:49:34.000   40.086141210 -105.233553010  1634.3485   2   7   0.2964   0.4567   0.8488   0.1393   0.4420   0.4329   0.01    0.0
