% program   : RTKPOST ver.demo5 b34d
% inp file  : C:\Users\snewm\Downloads\PPKdata_8.obs
% inp file  : C:\Users\snewm\Downloads\COM10___115200_230301_174311.obs
% inp file  : C:\Users\snewm\Downloads\COM10___115200_230301_174311.nav
% inp file  : C:\Users\snewm\Downloads\COM10___115200_230301_174311.sbs
% obs start : 2023/03/01 17:53:29.0 GPST (week2251 323609.0s)
% obs end   : 2023/03/01 18:09:19.0 GPST (week2251 324559.0s)
% pos mode  : Kinematic
% freqs     : L1+L2/E5b
% solution  : Combined-No Phase Reset
% elev mask : 15.0 deg
% dynamics  : on
% tidecorr  : off
% ionos opt : Broadcast
% tropo opt : Saastamoinen
% ephemeris : Broadcast
% navi sys  : GPS GLONASS
% amb res   : Fix and Hold
% amb glo   : Fix and Hold
% val thres : 3.0
% antenna1  :                       ( 0.0000  0.0000  0.0000)
% antenna2  :                       ( 0.0000  0.0000  0.0000)
% ref pos   : 40.009506556 -105.243601265  1587.9338
%
% (lat/lon/height=WGS84/ellipsoidal,Q=1:fix,2:float,3:sbas,4:dgps,5:single,6:ppp,ns=# of satellites)
%  GPST                  latitude(deg) longitude(deg)  height(m)   Q  ns   sdn(m)   sde(m)   sdu(m)  sdne(m)  sdeu(m)  sdun(m) age(s)  ratio
2023/03/01 17:53:29.000   40.009519644 -105.243608405  1587.8074   1  13   0.0065   0.0038   0.0158  -0.0025   0.0038  -0.0077   0.01   16.7
2023/03/01 17:53:30.000   40.009519635 -105.243608389  1587.7989   1  13   0.0068   0.0040   0.0158  -0.0028   0.0039  -0.0079   0.01   16.5
2023/03/01 17:53:31.000   40.009519682 -105.243608351  1587.7993   1  13   0.0064   0.0038   0.0158  -0.0023   0.0037  -0.0077   0.01   15.6
2023/03/01 17:53:32.000   40.009519638 -105.243608400  1587.7954   1  13   0.0066   0.0039   0.0158  -0.0024   0.0038  -0.0077   0.01   14.9
2023/03/01 17:53:33.000   40.009519637 -105.243608377  1587.8037   1  13   0.0063   0.0038   0.0157  -0.0021   0.0037  -0.0076   0.01   14.1
2023/03/01 17:53:34.000   40.009519616 -105.243608385  1587.8059   1  13   0.0063   0.0038   0.0158  -0.0020   0.0037  -0.0075   0.01   13.4
2023/03/01 17:53:35.000   40.009519638 -105.243608370  1587.8035   1  13   0.0062   0.0037   0.0157  -0.0022   0.0036  -0.0076   0.01   11.4
2023/03/01 17:53:36.000   40.009519654 -105.243608370  1587.7980   1  13   0.0062   0.0037   0.0157  -0.0022   0.0036  -0.0076   0.01   10.7
2023/03/01 17:53:37.000   40.009519631 -105.243608353  1587.7964   1  13   0.0062   0.0037   0.0157  -0.0022   0.0036  -0.0076   0.01    9.9
2023/03/01 17:53:38.000   40.009519644 -105.243608343  1587.8062   1  13   0.0062   0.0037   0.0157  -0.0022   0.0036  -0.0076   0.01    9.1
2023/03/01 17:53:39.000   40.009519644 -105.243608365  1587.7984   1  13   0.0062   0.0037   0.0157  -0.0022   0.0036  -0.0076   0.01    8.3
2023/03/01 17:53:40.000   40.009519610 -105.243608352  1587.8028   1  13   0.0062   0.0037   0.0157  -0.0022   0.0036  -0.0076   0.01    7.7
2023/03/01 17:53:41.000   40.009519636 -105.243608367  1587.8013   1  13   0.0062   0.0037   0.0157  -0.0022   0.0036  -0.0076   0.01    6.9
2023/03/01 17:53:42.000   40.009519618 -105.243608336  1587.7979   1  13   0.0062   0.0037   0.0157  -0.0022   0.0036  -0.0076   0.01    6.0
2023/03/01 17:53:43.000   40.009519628 -105.243608359  1587.7993   1  13   0.0062   0.0037   0.0157  -0.0022   0.0036  -0.0076   0.01    5.2
2023/03/01 17:53:44.000   40.009519633 -105.243608347  1587.7933   1  13   0.0062   0.0037   0.0157  -0.0022   0.0036  -0.0076   0.01    4.2
2023/03/01 17:53:45.000   40.009519592 -105.243608352  1587.7966   1  13   0.0062   0.0038   0.0157  -0.0021   0.0036  -0.0076   0.01    6.0
2023/03/01 17:53:46.000   40.009519650 -105.243608345  1587.7889   1  13   0.0062   0.0038   0.0157  -0.0021   0.0036  -0.0076   0.01    8.4
2023/03/01 17:53:47.000   40.009519425 -105.243608479  1587.8348   1  13   0.0062   0.0039   0.0157  -0.0020   0.0035  -0.0076   0.01    7.6
2023/03/01 17:53:48.000   40.009519462 -105.243608434  1587.8409   1  13   0.0062   0.0039   0.0157  -0.0020   0.0035  -0.0076   0.01    7.4
2023/03/01 17:53:49.000   40.009519442 -105.243608456  1587.8319   1  13   0.0062   0.0038   0.0157  -0.0021   0.0036  -0.0076   0.01    6.9
2023/03/01 17:53:50.000   40.009519712 -105.243608297  1587.7769   1  13   0.0062   0.0039   0.0157  -0.0020   0.0035  -0.0076   0.01    6.1
2023/03/01 17:53:51.000   40.009519678 -105.243608383  1587.7940   1  13   0.0062   0.0037   0.0157  -0.0022   0.0036  -0.0076   0.01    5.5
2023/03/01 17:53:52.000   40.009519668 -105.243608337  1587.7922   1  13   0.0062   0.0037   0.0157  -0.0022   0.0036  -0.0076   0.01    4.4
2023/03/01 17:53:53.000   40.009519625 -105.243608354  1587.7995   1  13   0.0062   0.0038   0.0161  -0.0021   0.0035  -0.0077   0.01   16.2
2023/03/01 17:53:54.000   40.009519660 -105.243608345  1587.7863   1  13   0.0063   0.0038   0.0164  -0.0021   0.0034  -0.0078   0.01   16.1
2023/03/01 17:53:55.000   40.009519636 -105.243608362  1587.7964   1  13   0.0063   0.0038   0.0170  -0.0020   0.0030  -0.0079   0.01   15.9
2023/03/01 17:53:56.000   40.009519627 -105.243608361  1587.7960   1  12   0.0063   0.0038   0.0170  -0.0020   0.0030  -0.0079   0.01   15.7
2023/03/01 17:53:57.000   40.009519647 -105.243608354  1587.7923   1  12   0.0063   0.0038   0.0170  -0.0020   0.0030  -0.0079   0.01   15.6
2023/03/01 17:53:58.000   40.009519666 -105.243608337  1587.7896   1  12   0.0063   0.0038   0.0170  -0.0020   0.0030  -0.0079   0.01   15.6
2023/03/01 17:53:59.000   40.009519655 -105.243608328  1587.7961   1  12   0.0063   0.0038   0.0170  -0.0020   0.0030  -0.0079   0.01   15.4
2023/03/01 17:54:00.000   40.009519668 -105.243608357  1587.7859   1  12   0.0063   0.0038   0.0170  -0.0020   0.0030  -0.0079   0.01   15.3
2023/03/01 17:54:01.000   40.009519652 -105.243608342  1587.7957   1  12   0.0063   0.0038   0.0170  -0.0020   0.0030  -0.0079   0.01   15.0
2023/03/01 17:54:02.000   40.009519694 -105.243608337  1587.7826   1  12   0.0063   0.0038   0.0170  -0.0020   0.0030  -0.0079   0.01   14.8
2023/03/01 17:54:03.000   40.009519640 -105.243608330  1587.7960   1  12   0.0063   0.0038   0.0170  -0.0020   0.0030  -0.0079   0.01   14.5
2023/03/01 17:54:04.000   40.009519647 -105.243608340  1587.7930   1  12   0.0063   0.0038   0.0170  -0.0020   0.0030  -0.0079   0.01   14.4
2023/03/01 17:54:05.000   40.009519663 -105.243608326  1587.7839   1  12   0.0063   0.0038   0.0170  -0.0020   0.0030  -0.0079   0.01   14.1
2023/03/01 17:54:06.000   40.009519664 -105.243608345  1587.7966   1  12   0.0063   0.0038   0.0170  -0.0020   0.0031  -0.0079   0.01   14.0
2023/03/01 17:54:07.000   40.009519633 -105.243608338  1587.7975   1  12   0.0063   0.0038   0.0170  -0.0020   0.0031  -0.0079   0.01   13.7
2023/03/01 17:54:08.000   40.009519611 -105.243608328  1587.7998   1   5   0.0068   0.0044   0.0179  -0.0024   0.0034  -0.0083   0.01   25.4
2023/03/01 17:54:09.000   40.009519645 -105.243608339  1587.8015   1  12   0.0063   0.0038   0.0169  -0.0020   0.0031  -0.0079   0.01   13.1
2023/03/01 17:54:10.000   40.009519663 -105.243608348  1587.7935   1  12   0.0063   0.0038   0.0169  -0.0020   0.0031  -0.0079   0.01   12.0
2023/03/01 17:54:11.000   40.009519668 -105.243608334  1587.7804   1  12   0.0063   0.0038   0.0169  -0.0020   0.0031  -0.0079   0.01   10.8
2023/03/01 17:54:12.000   40.009519660 -105.243608330  1587.7918   1  13   0.0062   0.0038   0.0163  -0.0021   0.0034  -0.0077   0.01    9.8
2023/03/01 17:54:13.000   40.009519637 -105.243608365  1587.8024   1  13   0.0063   0.0038   0.0169  -0.0020   0.0031  -0.0079   0.01    8.7
2023/03/01 17:54:14.000   40.009519629 -105.243608365  1587.8082   1  13   0.0062   0.0037   0.0156  -0.0022   0.0037  -0.0075   0.01    7.1
2023/03/01 17:54:15.000   40.009519633 -105.243608367  1587.8160   1  13   0.0062   0.0037   0.0156  -0.0022   0.0037  -0.0075   0.01    5.7
2023/03/01 17:54:16.000   40.009519641 -105.243608391  1587.8057   1  13   0.0062   0.0037   0.0156  -0.0022   0.0037  -0.0075   0.01    4.2
2023/03/01 17:54:17.000   40.009519648 -105.243608366  1587.8002   1  13   0.0065   0.0039   0.0157  -0.0025   0.0038  -0.0077   0.01    3.5
2023/03/01 17:54:18.000   40.009519660 -105.243608374  1587.8035   1  13   0.0063   0.0038   0.0156  -0.0023   0.0037  -0.0076   0.01   10.8
2023/03/01 17:54:19.000   40.009519632 -105.243608354  1587.8033   1  13   0.0063   0.0038   0.0156  -0.0023   0.0037  -0.0076   0.01   10.3
2023/03/01 17:54:20.000   40.009519665 -105.243608387  1587.7986   1  13   0.0045   0.0027   0.0111  -0.0017   0.0027  -0.0054   0.01    3.1
2023/03/01 17:54:21.000   40.009519608 -105.243608395  1587.8180   1  13   0.0045   0.0027   0.0111  -0.0017   0.0027  -0.0054   0.01    3.3
2023/03/01 17:54:22.000   40.009519652 -105.243608316  1587.8146   1  13   0.0045   0.0027   0.0111  -0.0017   0.0027  -0.0054   0.01    3.4
2023/03/01 17:54:23.000   40.009519661 -105.243608324  1587.8011   1  13   0.0046   0.0027   0.0111  -0.0018   0.0027  -0.0054   0.01    3.5
2023/03/01 17:54:24.000   40.009519640 -105.243608411  1587.8098   1  13   0.0046   0.0027   0.0112  -0.0018   0.0026  -0.0055   0.01    3.6
2023/03/01 17:54:25.000   40.009519654 -105.243608340  1587.7973   1   9   0.0068   0.0040   0.0178  -0.0025   0.0039  -0.0083   0.01   12.9
2023/03/01 17:54:26.000   40.009519663 -105.243608379  1587.8022   1  13   0.0047   0.0028   0.0113  -0.0019   0.0027  -0.0055   0.01    3.7
2023/03/01 17:54:27.000   40.009519665 -105.243608379  1587.8053   1  12   0.0063   0.0038   0.0169  -0.0021   0.0031  -0.0079   0.01    7.2
2023/03/01 17:54:28.000   40.009519640 -105.243608386  1587.8102   1  12   0.0063   0.0039   0.0169  -0.0021   0.0031  -0.0079   0.01    5.6
2023/03/01 17:54:29.000   40.009519647 -105.243608383  1587.8053   1  13   0.0045   0.0027   0.0115  -0.0016   0.0025  -0.0054   0.01    3.8
2023/03/01 17:54:30.000   40.009519668 -105.243608351  1587.7872   1   5   0.0068   0.0044   0.0179  -0.0024   0.0035  -0.0083   0.01   11.2
2023/03/01 17:54:31.000   40.009519678 -105.243608355  1587.7950   1  13   0.0063   0.0038   0.0163  -0.0021   0.0034  -0.0077   0.01    5.2
2023/03/01 17:54:32.000   40.009519662 -105.243608345  1587.7920   1  13   0.0063   0.0039   0.0170  -0.0021   0.0031  -0.0079   0.01    5.2
2023/03/01 17:54:33.000   40.009519623 -105.243608371  1587.8076   1  12   0.0063   0.0039   0.0170  -0.0021   0.0031  -0.0079   0.01    5.1
2023/03/01 17:54:34.000   40.009519653 -105.243608365  1587.7962   1  12   0.0064   0.0039   0.0170  -0.0021   0.0032  -0.0079   0.01    4.8
2023/03/01 17:54:35.000   40.009519613 -105.243608363  1587.8067   1  11   0.0065   0.0039   0.0171  -0.0020   0.0032  -0.0079   0.01    9.8
2023/03/01 17:54:36.000   40.009519624 -105.243608369  1587.8035   1  12   0.0064   0.0040   0.0171  -0.0021   0.0032  -0.0079   0.01    9.5
2023/03/01 17:54:37.000   40.009519644 -105.243608373  1587.7991   1  12   0.0065   0.0040   0.0172  -0.0022   0.0032  -0.0080   0.01    8.9
2023/03/01 17:54:38.000   40.009519647 -105.243608358  1587.7944   1  12   0.0065   0.0041   0.0173  -0.0022   0.0033  -0.0080   0.01    8.3
2023/03/01 17:54:39.000   40.009519623 -105.243608368  1587.8012   1  13   0.0068   0.0044   0.0178  -0.0024   0.0035  -0.0083   0.01    7.0
2023/03/01 17:54:41.000   40.009519661 -105.243608369  1587.7951   1  13   0.0066   0.0042   0.0168  -0.0023   0.0034  -0.0079   0.01    6.2
2023/03/01 17:54:42.000   40.009519635 -105.243608357  1587.8004   1  13   0.0069   0.0046   0.0179  -0.0025   0.0031  -0.0082   0.01    6.1
2023/03/01 17:54:43.000   40.009519622 -105.243608358  1587.8135   1  13   0.0062   0.0038   0.0155  -0.0022   0.0037  -0.0075   0.01    6.2
2023/03/01 17:54:44.000   40.009519616 -105.243608357  1587.8149   1  13   0.0062   0.0038   0.0155  -0.0022   0.0037  -0.0075   0.01    6.4
2023/03/01 17:54:45.000   40.009519617 -105.243608351  1587.8145   1  13   0.0062   0.0038   0.0155  -0.0022   0.0037  -0.0075   0.01    6.5
2023/03/01 17:54:46.000   40.009519609 -105.243608373  1587.8182   1  13   0.0062   0.0038   0.0155  -0.0022   0.0037  -0.0075   0.01    6.5
2023/03/01 17:54:47.000   40.009519601 -105.243608363  1587.8153   1  13   0.0062   0.0038   0.0155  -0.0021   0.0037  -0.0075   0.01    6.5
2023/03/01 17:54:48.000   40.009519622 -105.243608383  1587.8072   1  13   0.0044   0.0027   0.0110  -0.0016   0.0026  -0.0053   0.01    3.1
2023/03/01 17:54:49.000   40.009519631 -105.243608352  1587.7967   1  11   0.0045   0.0027   0.0120  -0.0014   0.0022  -0.0055   0.01    3.4
2023/03/01 17:54:50.000   40.009519625 -105.243608389  1587.8079   1  13   0.0044   0.0027   0.0110  -0.0016   0.0026  -0.0053   0.01    3.6
2023/03/01 17:54:51.000   40.009519640 -105.243608371  1587.7928   1  13   0.0044   0.0027   0.0114  -0.0015   0.0024  -0.0054   0.01    3.7
2023/03/01 17:54:52.000   40.009519651 -105.243608356  1587.7771   1  10   0.0052   0.0031   0.0144  -0.0017   0.0032  -0.0066   0.01    3.6
2023/03/01 17:54:56.000   40.009517396 -105.243606438  1588.3782   2  10   0.1234   0.1005   0.2255  -0.0273   0.0161  -0.1221   0.01    0.0
2023/03/01 17:54:57.000   40.009518644 -105.243606698  1587.9737   2  13   0.1342   0.1064   0.2621  -0.0287  -0.0059  -0.1415   0.01    0.0
2023/03/01 17:55:00.000   40.009516674 -105.243606177  1588.4915   2   5   0.1164   0.0853   0.2304  -0.0164  -0.0137  -0.1304   0.01    1.1
2023/03/01 17:55:03.000   40.009516834 -105.243605986  1588.4732   2   5   0.1149   0.0848   0.2257  -0.0209   0.0156  -0.1270   0.01    1.2
2023/03/01 17:55:04.000   40.009519628 -105.243608299  1587.8115   1  13   0.0079   0.0057   0.0223  -0.0041   0.0067  -0.0106   0.01    6.0
2023/03/01 17:55:05.000   40.009519611 -105.243608319  1587.8092   1  12   0.0058   0.0036   0.0169  -0.0031   0.0055  -0.0083   0.01    8.0
2023/03/01 17:55:06.000   40.009519597 -105.243608340  1587.8051   1  13   0.0056   0.0035   0.0166  -0.0030   0.0053  -0.0081   0.01    8.3
2023/03/01 17:55:07.000   40.009519666 -105.243608330  1587.8066   1  13   0.0047   0.0029   0.0113  -0.0019   0.0030  -0.0055   0.01   18.8
2023/03/01 17:55:08.000   40.009519646 -105.243608326  1587.8126   1  13   0.0048   0.0029   0.0113  -0.0019   0.0030  -0.0056   0.01   19.3
2023/03/01 17:55:09.000   40.009519617 -105.243608336  1587.8222   1  13   0.0047   0.0028   0.0112  -0.0018   0.0029  -0.0055   0.01   17.8
2023/03/01 17:55:10.000   40.009519632 -105.243608344  1587.8192   1  13   0.0045   0.0028   0.0111  -0.0017   0.0027  -0.0054   0.01   16.5
2023/03/01 17:55:11.000   40.009519636 -105.243608341  1587.8154   1  13   0.0045   0.0027   0.0110  -0.0016   0.0027  -0.0053   0.01   14.1
2023/03/01 17:55:12.000   40.009519619 -105.243608341  1587.8276   1  13   0.0045   0.0027   0.0110  -0.0016   0.0027  -0.0053   0.01   13.2
2023/03/01 17:55:13.000   40.009519666 -105.243608350  1587.8198   1  13   0.0044   0.0027   0.0110  -0.0016   0.0027  -0.0053   0.01   12.7
2023/03/01 17:55:14.000   40.009519643 -105.243608360  1587.8170   1  13   0.0044   0.0027   0.0110  -0.0016   0.0027  -0.0053   0.01   11.3
2023/03/01 17:55:15.000   40.009519633 -105.243608360  1587.8195   1  13   0.0044   0.0027   0.0110  -0.0016   0.0026  -0.0053   0.01   10.0
2023/03/01 17:55:16.000   40.009519655 -105.243608353  1587.8192   1  13   0.0044   0.0027   0.0109  -0.0016   0.0026  -0.0053   0.01    8.9
2023/03/01 17:55:17.000   40.009519648 -105.243608362  1587.8193   1  13   0.0044   0.0027   0.0109  -0.0016   0.0026  -0.0053   0.01    8.2
2023/03/01 17:55:18.000   40.009519661 -105.243608371  1587.8163   1  13   0.0063   0.0039   0.0155  -0.0023   0.0038  -0.0075   0.01    7.7
2023/03/01 17:55:19.000   40.009519642 -105.243608359  1587.8193   1  13   0.0063   0.0039   0.0155  -0.0023   0.0038  -0.0075   0.01    7.4
2023/03/01 17:55:20.000   40.009519642 -105.243608369  1587.8193   1  13   0.0063   0.0038   0.0155  -0.0022   0.0038  -0.0075   0.01    7.2
2023/03/01 17:55:21.000   40.009519634 -105.243608364  1587.8193   1  13   0.0063   0.0038   0.0155  -0.0022   0.0037  -0.0075   0.01    7.0
2023/03/01 17:55:22.000   40.009519654 -105.243608367  1587.8172   1  13   0.0063   0.0038   0.0155  -0.0022   0.0037  -0.0075   0.01    6.8
2023/03/01 17:55:23.000   40.009519674 -105.243608362  1587.8058   1  13   0.0063   0.0038   0.0155  -0.0022   0.0037  -0.0075   0.01    6.8
2023/03/01 17:55:24.000   40.009519656 -105.243608363  1587.8113   1  13   0.0062   0.0038   0.0154  -0.0022   0.0037  -0.0074   0.01   11.5
2023/03/01 17:55:25.000   40.009519663 -105.243608372  1587.8150   1  13   0.0062   0.0038   0.0154  -0.0022   0.0037  -0.0074   0.01   12.0
2023/03/01 17:55:26.000   40.009519632 -105.243608361  1587.8201   1  13   0.0062   0.0038   0.0154  -0.0022   0.0037  -0.0074   0.01   12.6
2023/03/01 17:55:27.000   40.009519666 -105.243608371  1587.8054   1  13   0.0062   0.0038   0.0154  -0.0022   0.0037  -0.0074   0.01   13.1
2023/03/01 17:55:28.000   40.009519638 -105.243608367  1587.8079   1  13   0.0062   0.0038   0.0154  -0.0022   0.0037  -0.0074   0.01   13.6
2023/03/01 17:55:29.000   40.009519637 -105.243608363  1587.8039   1  13   0.0062   0.0038   0.0154  -0.0022   0.0037  -0.0074   0.01   14.0
2023/03/01 17:55:30.000   40.009519634 -105.243608359  1587.8037   1  13   0.0062   0.0038   0.0154  -0.0022   0.0037  -0.0074   0.01   14.5
2023/03/01 17:55:31.000   40.009519615 -105.243608355  1587.8072   1  13   0.0062   0.0038   0.0154  -0.0022   0.0037  -0.0074   0.01   14.9
2023/03/01 17:55:32.000   40.009519610 -105.243608362  1587.8061   1  13   0.0062   0.0038   0.0154  -0.0022   0.0037  -0.0074   0.01   15.5
2023/03/01 17:55:33.000   40.009519625 -105.243608341  1587.8029   1  13   0.0062   0.0038   0.0154  -0.0022   0.0037  -0.0074   0.01   16.0
2023/03/01 17:55:34.000   40.009519665 -105.243608332  1587.7992   1  13   0.0062   0.0038   0.0154  -0.0022   0.0037  -0.0074   0.01   16.6
2023/03/01 17:55:35.000   40.009519673 -105.243608331  1587.7937   1  13   0.0062   0.0038   0.0154  -0.0022   0.0037  -0.0074   0.01   16.9
2023/03/01 17:55:36.000   40.009519628 -105.243608366  1587.7954   1  13   0.0062   0.0038   0.0154  -0.0022   0.0037  -0.0074   0.01   17.7
2023/03/01 17:55:37.000   40.009519643 -105.243608346  1587.7991   1  13   0.0062   0.0038   0.0154  -0.0022   0.0037  -0.0074   0.01   18.5
2023/03/01 17:55:38.000   40.009519617 -105.243608358  1587.7988   1  13   0.0062   0.0038   0.0154  -0.0022   0.0037  -0.0074   0.01   19.0
2023/03/01 17:55:39.000   40.009519640 -105.243608336  1587.8071   1  13   0.0062   0.0038   0.0154  -0.0022   0.0037  -0.0074   0.01   19.7
2023/03/01 17:55:40.000   40.009519662 -105.243608333  1587.7974   1  13   0.0062   0.0038   0.0154  -0.0022   0.0037  -0.0074   0.01   20.3
2023/03/01 17:55:41.000   40.009519640 -105.243608342  1587.8008   1  13   0.0062   0.0038   0.0154  -0.0022   0.0037  -0.0074   0.01   20.7
2023/03/01 17:55:42.000   40.009519598 -105.243608325  1587.8125   1  13   0.0062   0.0038   0.0153  -0.0022   0.0037  -0.0074   0.01   20.8
2023/03/01 17:55:43.000   40.009519626 -105.243608345  1587.8017   1  13   0.0062   0.0038   0.0153  -0.0022   0.0037  -0.0074   0.01   21.4
2023/03/01 17:55:44.000   40.009519624 -105.243608366  1587.8114   1  13   0.0062   0.0038   0.0153  -0.0022   0.0037  -0.0074   0.01   21.5
2023/03/01 17:55:45.000   40.009519672 -105.243608335  1587.7911   1  14   0.0062   0.0038   0.0153  -0.0022   0.0037  -0.0074   0.01   23.1
2023/03/01 17:55:46.000   40.009519636 -105.243608340  1587.8046   1  13   0.0061   0.0038   0.0161  -0.0019   0.0028  -0.0073   0.01   32.1
2023/03/01 17:55:47.000   40.009519600 -105.243608354  1587.8173   1  14   0.0060   0.0038   0.0160  -0.0018   0.0027  -0.0072   0.01   32.7
2023/03/01 17:55:48.000   40.009520239 -105.243607659  1587.2262   1  13   0.0062   0.0038   0.0160  -0.0021   0.0034  -0.0075   0.01   33.5
2023/03/01 17:55:49.000   40.009520236 -105.243607655  1587.2205   1  13   0.0062   0.0038   0.0157  -0.0021   0.0035  -0.0075   0.01   34.1
2023/03/01 17:55:50.000   40.009520088 -105.243607828  1587.3769   1  13   0.0062   0.0038   0.0156  -0.0021   0.0036  -0.0075   0.01   35.0
2023/03/01 17:55:51.000   40.009519982 -105.243607931  1587.4559   1  13   0.0062   0.0038   0.0156  -0.0022   0.0036  -0.0074   0.01   35.1
2023/03/01 17:55:52.000   40.009519870 -105.243608026  1587.5288   1  13   0.0063   0.0038   0.0156  -0.0021   0.0037  -0.0073   0.01   33.4
2023/03/01 17:55:53.000   40.009519882 -105.243608051  1587.5574   1  13   0.0063   0.0038   0.0155  -0.0021   0.0037  -0.0073   0.01   33.8
2023/03/01 17:55:54.000   40.009519844 -105.243608093  1587.5922   1  13   0.0062   0.0038   0.0155  -0.0021   0.0037  -0.0074   0.01   34.5
2023/03/01 17:55:55.000   40.009519611 -105.243608334  1587.8193   1  13   0.0063   0.0038   0.0166  -0.0020   0.0032  -0.0076   0.01   35.7
2023/03/01 17:55:56.000   40.009519654 -105.243608319  1587.7954   1  13   0.0062   0.0038   0.0159  -0.0021   0.0035  -0.0075   0.01   35.9
2023/03/01 17:55:57.000   40.009519602 -105.243608306  1587.8189   1   6   0.0087   0.0050   0.0225  -0.0041   0.0066  -0.0105   0.01    7.3
2023/03/01 17:55:58.000   40.009519641 -105.243608326  1587.8099   1  12   0.0067   0.0042   0.0161  -0.0026   0.0044  -0.0078   0.01    4.7
2023/03/01 17:56:00.000   40.009523322 -105.243608179  1585.3305   2  12   1.0296   0.6920   1.4201  -0.2169   0.3319  -0.6583   0.01    0.0
2023/03/01 17:56:04.000   40.009535434 -105.243605567  1587.0327   2  13   0.7573   0.5991   1.4560  -0.5293   0.1287  -0.8304   0.01    0.0
2023/03/01 17:56:07.000   40.009533805 -105.243605720  1587.3701   2  13   0.3731   0.2421   0.8202  -0.1182   0.1950  -0.3999   0.01    0.0
2023/03/01 17:56:11.000   40.009533853 -105.243605682  1587.3491   2  13   0.3702   0.2416   0.8065  -0.1167   0.1921  -0.3930   0.01    0.0
2023/03/01 17:56:12.000   40.009533926 -105.243605666  1587.3979   2  13   0.3704   0.2413   0.8091  -0.1173   0.1931  -0.3932   0.01    0.0
2023/03/01 17:56:13.000   40.009533876 -105.243605641  1587.4131   2  13   0.3707   0.2415   0.8109  -0.1177   0.1940  -0.3932   0.01    0.0
2023/03/01 17:56:14.000   40.009533702 -105.243605543  1587.4712   2  13   0.3714   0.2420   0.8148  -0.1179   0.1941  -0.3942   0.01    0.0
2023/03/01 17:56:15.000   40.009533653 -105.243605494  1587.5138   2  13   0.3722   0.2422   0.8207  -0.1186   0.1958  -0.3958   0.01    0.0
2023/03/01 17:56:16.000   40.009533677 -105.243605518  1587.5458   2  13   0.3729   0.2421   0.8271  -0.1196   0.1981  -0.3976   0.01    0.0
2023/03/01 17:56:17.000   40.009533919 -105.243605620  1587.5278   2  13   0.3737   0.2423   0.8326  -0.1202   0.1998  -0.3992   0.01    0.0
2023/03/01 17:56:18.000   40.009534086 -105.243605651  1587.4460   2  13   0.3743   0.2424   0.8368  -0.1207   0.2011  -0.4004   0.01    0.0
2023/03/01 17:56:19.000   40.009534111 -105.243605669  1587.4191   2  13   0.3747   0.2425   0.8396  -0.1211   0.2020  -0.4013   0.01    0.0
2023/03/01 17:56:20.000   40.009534170 -105.243605728  1587.3670   2  13   0.3749   0.2426   0.8410  -0.1213   0.2024  -0.4017   0.01    0.0
2023/03/01 17:56:21.000   40.009534301 -105.243605803  1587.3164   2  13   0.3749   0.2426   0.8409  -0.1214   0.2025  -0.4017   0.01    0.0
2023/03/01 17:56:22.000   40.009534377 -105.243605831  1587.2568   2  13   0.3747   0.2425   0.8393  -0.1213   0.2022  -0.4013   0.01    0.0
2023/03/01 17:56:23.000   40.009534341 -105.243605868  1587.2368   2  13   0.3743   0.2424   0.8363  -0.1211   0.2014  -0.4005   0.01    0.0
2023/03/01 17:56:24.000   40.009534241 -105.243605854  1587.2310   2  13   0.3738   0.2423   0.8320  -0.1207   0.2003  -0.3994   0.01    0.0
2023/03/01 17:56:25.000   40.009534006 -105.243605855  1587.2754   2  13   0.3730   0.2421   0.8263  -0.1202   0.1988  -0.3978   0.01    0.0
2023/03/01 17:56:26.000   40.009533834 -105.243605761  1587.3181   2  13   0.3739   0.2423   0.8386  -0.1207   0.2011  -0.4041   0.01    0.0
2023/03/01 17:56:27.000   40.009533487 -105.243605604  1587.5016   2  13   0.3771   0.2433   0.8768  -0.1224   0.2082  -0.4199   0.01    0.0
2023/03/01 17:56:28.000   40.009533555 -105.243605797  1587.3438   2  14   0.3786   0.2389   0.8349  -0.1289   0.2016  -0.4160   0.01    0.0
2023/03/01 17:56:32.000   40.009527848 -105.243608248  1587.2349   2  14   0.3953   0.3070   0.7410  -0.1284   0.1556  -0.3806   0.01    0.0
2023/03/01 17:56:33.000   40.009528584 -105.243608977  1587.0737   2  14   0.3879   0.3026   0.7199  -0.1234   0.1483  -0.3681   0.01    0.0
2023/03/01 17:56:34.000   40.009528475 -105.243609007  1587.0966   2  14   0.3875   0.3014   0.7200  -0.1238   0.1491  -0.3680   0.01    0.0
2023/03/01 17:56:35.000   40.009528292 -105.243608902  1587.1230   2  14   0.3876   0.3014   0.7205  -0.1240   0.1495  -0.3680   0.01    0.0
2023/03/01 17:56:36.000   40.009528251 -105.243608871  1587.1350   2  14   0.3888   0.3021   0.7224  -0.1264   0.1529  -0.3701   0.01    0.0
2023/03/01 17:56:37.000   40.009528279 -105.243608941  1587.1309   2  14   0.3887   0.3021   0.7218  -0.1265   0.1529  -0.3698   0.01    0.0
2023/03/01 17:56:38.000   40.009528157 -105.243608894  1587.1596   2  14   0.3886   0.3021   0.7213  -0.1264   0.1533  -0.3691   0.01    0.0
2023/03/01 17:56:42.000   40.009528196 -105.243608882  1587.1719   2  14   0.3873   0.3037   0.7227  -0.1268   0.1556  -0.3685   0.01    0.0
2023/03/01 17:56:43.000   40.009528332 -105.243609013  1587.1112   2  14   0.3886   0.3089   0.7636  -0.1276   0.1625  -0.3791   0.01    0.0
2023/03/01 17:56:44.000   40.009528067 -105.243607891  1587.3123   2  14   0.3901   0.4492   0.8594  -0.1539   0.1855  -0.3935   0.01    0.0
2023/03/01 17:56:45.000   40.009528213 -105.243608129  1587.2190   2  14   0.3877   0.4313   0.7507  -0.1490   0.1633  -0.3718   0.01    0.0
2023/03/01 17:56:46.000   40.009528215 -105.243608149  1587.2006   2  14   0.3898   0.4287   0.7586  -0.1495   0.1651  -0.3778   0.01    0.0
2023/03/01 17:56:47.000   40.009528380 -105.243608183  1587.1184   2  14   0.4018   0.4335   0.8403  -0.1561   0.1840  -0.4186   0.01    0.0
2023/03/01 17:56:49.000   40.009525057 -105.243607668  1587.4450   2   8   0.4652   0.2997   0.9754  -0.1544   0.2258  -0.5161   0.01    0.0
2023/03/01 17:56:50.000   40.009524992 -105.243607765  1587.5043   2  12   0.4559   0.2913   0.9979  -0.1585   0.2363  -0.5243   0.01    0.0
2023/03/01 17:56:51.000   40.009525695 -105.243607644  1587.4376   2  14   0.4429   0.2891   0.9270  -0.1502   0.2152  -0.4870   0.01    0.0
2023/03/01 17:56:52.000   40.009525293 -105.243607832  1587.4406   2   9   0.4427   0.2916   0.9065  -0.1506   0.2146  -0.4768   0.01    0.0
2023/03/01 17:56:54.000   40.009525658 -105.243607516  1587.4514   2  14   0.4388   0.2885   0.9029  -0.1477   0.2103  -0.4727   0.01    0.0
2023/03/01 17:56:55.000   40.009525653 -105.243607476  1587.4660   2  14   0.4390   0.2886   0.9041  -0.1480   0.2108  -0.4725   0.01    0.0
2023/03/01 17:56:56.000   40.009525641 -105.243607441  1587.4566   2  14   0.4397   0.2888   0.9081  -0.1485   0.2120  -0.4740   0.01    0.0
2023/03/01 17:56:57.000   40.009525645 -105.243607419  1587.4449   2  14   0.4401   0.2889   0.9107  -0.1489   0.2129  -0.4750   0.01    0.0
2023/03/01 17:56:58.000   40.009525679 -105.243607446  1587.4060   2  14   0.4403   0.2889   0.9119  -0.1491   0.2133  -0.4754   0.01    0.0
2023/03/01 17:56:59.000   40.009525670 -105.243607456  1587.3670   2  14   0.4402   0.2889   0.9118  -0.1491   0.2133  -0.4753   0.01    0.0
2023/03/01 17:57:00.000   40.009525856 -105.243607495  1587.3379   2  14   0.4398   0.2889   0.9103  -0.1489   0.2128  -0.4745   0.01    0.0
2023/03/01 17:57:03.000   40.009525639 -105.243607346  1587.4278   2  14   0.4489   0.2908   0.9578  -0.1534   0.2236  -0.5005   0.01    0.0
2023/03/01 17:57:06.000   40.009523916 -105.243604712  1587.5877   2  14   0.7431   0.5093   1.5842  -0.2648   0.4321  -0.7919   0.01    0.0
2023/03/01 17:57:07.000   40.009524594 -105.243603861  1587.6983   2  14   0.8568   0.6188   1.9651  -0.3106   0.6115  -0.9410   0.01    0.0
2023/03/01 17:57:08.000   40.009524217 -105.243605029  1587.5398   2  14   0.8274   0.5661   1.5684  -0.2783   0.3591  -0.8235   0.01    0.0
2023/03/01 17:57:10.000   40.009520977 -105.243608684  1586.8527   2  14   0.6394   0.2336   1.7022   0.1678  -0.3071  -0.9914   0.01    0.0
2023/03/01 17:57:13.000   40.009520817 -105.243608951  1586.8412   2  14   0.3280   0.2291   0.6089  -0.1066   0.1346  -0.3227   0.01    0.0
2023/03/01 17:57:14.000   40.009520803 -105.243608971  1586.8452   2  14   0.3241   0.2274   0.5992  -0.1052   0.1331  -0.3163   0.01    0.0
2023/03/01 17:57:15.000   40.009521100 -105.243609207  1586.7861   2  14   0.3241   0.2271   0.6028  -0.1050   0.1333  -0.3165   0.01    0.0
2023/03/01 17:57:16.000   40.009520964 -105.243609174  1586.8444   2  14   0.3258   0.2273   0.6099  -0.1061   0.1355  -0.3195   0.01    0.0
2023/03/01 17:57:17.000   40.009520290 -105.243608845  1586.9664   2  14   0.3281   0.2279   0.6180  -0.1084   0.1395  -0.3235   0.01    0.0
2023/03/01 17:57:18.000   40.009520320 -105.243608827  1587.0273   2  12   0.3297   0.2286   0.6257  -0.1097   0.1413  -0.3266   0.01    0.0
2023/03/01 17:57:19.000   40.009520478 -105.243608857  1587.0677   2  14   0.3305   0.2284   0.6284  -0.1101   0.1429  -0.3274   0.01    0.0
2023/03/01 17:57:20.000   40.009520516 -105.243608858  1587.0678   2  14   0.3315   0.2286   0.6326  -0.1108   0.1443  -0.3291   0.01    0.0
2023/03/01 17:57:21.000   40.009520390 -105.243608817  1587.1088   2  14   0.3322   0.2288   0.6358  -0.1113   0.1454  -0.3304   0.01    0.0
2023/03/01 17:57:22.000   40.009520244 -105.243608822  1587.1177   2  14   0.3328   0.2289   0.6380  -0.1117   0.1462  -0.3312   0.01    0.0
2023/03/01 17:57:24.000   40.009519834 -105.243608708  1587.0930   2  14   0.3329   0.2289   0.6385  -0.1118   0.1465  -0.3314   0.01    0.0
2023/03/01 17:57:25.000   40.009519832 -105.243608697  1587.0729   2  14   0.3327   0.2288   0.6368  -0.1116   0.1460  -0.3307   0.01    0.0
2023/03/01 17:57:26.000   40.009519948 -105.243608733  1587.0367   2  14   0.3321   0.2287   0.6341  -0.1113   0.1452  -0.3297   0.01    0.0
2023/03/01 17:57:27.000   40.009520058 -105.243608752  1587.0084   2  14   0.3314   0.2286   0.6305  -0.1107   0.1441  -0.3282   0.01    0.0
2023/03/01 17:57:28.000   40.009520143 -105.243608791  1587.0077   2  14   0.3305   0.2284   0.6258  -0.1101   0.1427  -0.3263   0.01    0.0
2023/03/01 17:57:29.000   40.009520134 -105.243608797  1586.9941   2  14   0.3293   0.2282   0.6203  -0.1092   0.1410  -0.3241   0.01    0.0
2023/03/01 17:57:30.000   40.009520133 -105.243608788  1586.9816   2  14   0.3280   0.2279   0.6140  -0.1083   0.1390  -0.3216   0.01    0.0
2023/03/01 17:57:31.000   40.009520192 -105.243608839  1586.9681   2  14   0.3264   0.2276   0.6070  -0.1072   0.1367  -0.3188   0.01    0.0
2023/03/01 17:57:32.000   40.009520343 -105.243608916  1586.9005   2  14   0.3278   0.2277   0.6143  -0.1071   0.1375  -0.3239   0.01    0.0
2023/03/01 17:57:33.000   40.009521449 -105.243609220  1586.6030   2  14   0.3400   0.2301   0.6641  -0.1116   0.1480  -0.3541   0.01    0.0
2023/03/01 17:57:36.000   40.009515470 -105.243609230  1587.5856   2  14   0.4989   0.6095   0.6146  -0.4765   0.1628  -0.3365   0.01    0.0
2023/03/01 17:57:37.000   40.009516196 -105.243609250  1587.3079   2  14   0.3077   0.2257   0.5284  -0.1053   0.1227  -0.2825   0.01    0.0
2023/03/01 17:57:38.000   40.009516027 -105.243609175  1587.3021   2  14   0.3073   0.2248   0.5264  -0.1048   0.1229  -0.2803   0.01    0.0
2023/03/01 17:57:39.000   40.009515826 -105.243609159  1587.2930   2  13   0.3089   0.2250   0.5320  -0.1053   0.1247  -0.2822   0.01    0.0
2023/03/01 17:57:40.000   40.009515720 -105.243609112  1587.2836   2  14   0.3101   0.2253   0.5367  -0.1065   0.1266  -0.2840   0.01    0.0
2023/03/01 17:57:41.000   40.009515799 -105.243609131  1587.2410   2  14   0.3113   0.2255   0.5413  -0.1075   0.1282  -0.2856   0.01    0.0
2023/03/01 17:57:41.999   40.009515865 -105.243609140  1587.2272   2  14   0.3124   0.2258   0.5452  -0.1082   0.1296  -0.2870   0.01    0.0
2023/03/01 17:57:43.000   40.009516009 -105.243609188  1587.2145   2  14   0.3132   0.2260   0.5485  -0.1089   0.1308  -0.2881   0.01    0.0
2023/03/01 17:57:44.000   40.009516013 -105.243609166  1587.2344   2  14   0.3139   0.2262   0.5511  -0.1094   0.1317  -0.2889   0.01    0.0
2023/03/01 17:57:45.000   40.009516208 -105.243609222  1587.2215   2  14   0.3144   0.2263   0.5531  -0.1098   0.1324  -0.2895   0.01    0.0
2023/03/01 17:57:46.000   40.009516326 -105.243609286  1587.2193   2  14   0.3146   0.2264   0.5542  -0.1100   0.1328  -0.2898   0.01    0.0
2023/03/01 17:57:47.000   40.009516455 -105.243609363  1587.2155   2  14   0.3147   0.2264   0.5546  -0.1101   0.1329  -0.2899   0.01    0.0
2023/03/01 17:57:48.000   40.009516632 -105.243609454  1587.2067   2  14   0.3146   0.2264   0.5543  -0.1100   0.1328  -0.2896   0.01    0.0
2023/03/01 17:57:49.000   40.009516746 -105.243609481  1587.1889   2  14   0.3142   0.2264   0.5532  -0.1098   0.1324  -0.2891   0.01    0.0
2023/03/01 17:57:50.000   40.009516763 -105.243609467  1587.1754   2  14   0.3137   0.2263   0.5513  -0.1095   0.1318  -0.2883   0.01    0.0
2023/03/01 17:57:51.000   40.009516804 -105.243609472  1587.1667   2  14   0.3130   0.2261   0.5488  -0.1090   0.1309  -0.2872   0.01    0.0
2023/03/01 17:57:52.000   40.009516681 -105.243609446  1587.1505   2  14   0.3120   0.2259   0.5455  -0.1083   0.1298  -0.2859   0.01    0.0
2023/03/01 17:57:53.000   40.009516687 -105.243609442  1587.1394   2  14   0.3109   0.2257   0.5416  -0.1075   0.1284  -0.2844   0.01    0.0
2023/03/01 17:57:54.000   40.009516710 -105.243609429  1587.1777   2  14   0.3096   0.2254   0.5371  -0.1066   0.1268  -0.2826   0.01    0.0
2023/03/01 17:57:55.000   40.009516641 -105.243609361  1587.1784   2  14   0.3082   0.2251   0.5320  -0.1056   0.1249  -0.2806   0.01    0.0
2023/03/01 17:57:56.000   40.009516624 -105.243609343  1587.2104   2  14   0.3070   0.2250   0.5312  -0.1045   0.1237  -0.2805   0.01    0.0
2023/03/01 17:57:57.000   40.009516398 -105.243609267  1587.2298   2  14   0.3063   0.2254   0.5359  -0.1033   0.1228  -0.2822   0.01    0.0
2023/03/01 17:57:58.000   40.009516248 -105.243609171  1587.2792   2  14   0.3066   0.2219   0.5230  -0.1068   0.1226  -0.2807   0.01    0.0
2023/03/01 17:58:00.000   40.009519956 -105.243606792  1587.4532   2  14   0.4240   0.2864   0.8732  -0.1536   0.2246  -0.4443   0.01    0.0
2023/03/01 17:58:01.000   40.009519417 -105.243606167  1587.6261   2  14   0.4202   0.2943   0.9092  -0.1423   0.2248  -0.4476   0.01    0.0
2023/03/01 17:58:02.000   40.009517469 -105.243605222  1587.9872   2  15   0.4126   0.2929   0.8501  -0.1372   0.2121  -0.4201   0.01    0.0
2023/03/01 17:58:03.000   40.009519528 -105.243606235  1587.5840   2  14   0.4122   0.2927   0.8306  -0.1384   0.2103  -0.4133   0.01    0.0
2023/03/01 17:58:04.000   40.009519426 -105.243606177  1587.5651   2  14   0.4123   0.2917   0.8339  -0.1393   0.2112  -0.4145   0.01    0.0
2023/03/01 17:58:05.000   40.009519484 -105.243606264  1587.5366   2  13   0.4138   0.2924   0.8372  -0.1415   0.2130  -0.4161   0.01    0.0
2023/03/01 17:58:06.000   40.009519378 -105.243606219  1587.5483   2  14   0.4132   0.2920   0.8386  -0.1401   0.2128  -0.4160   0.01    0.0
2023/03/01 17:58:07.000   40.009519394 -105.243606221  1587.5391   2  14   0.4133   0.2920   0.8393  -0.1403   0.2131  -0.4162   0.01    0.0
2023/03/01 17:58:08.000   40.009519419 -105.243606194  1587.5302   2  14   0.4132   0.2920   0.8389  -0.1402   0.2130  -0.4159   0.01    0.0
2023/03/01 17:58:09.000   40.009519450 -105.243606162  1587.5223   2  14   0.4129   0.2920   0.8373  -0.1400   0.2125  -0.4152   0.01    0.0
2023/03/01 17:58:10.000   40.009519708 -105.243606382  1587.4932   2  14   0.4124   0.2920   0.8498  -0.1398   0.2165  -0.4185   0.01    0.0
2023/03/01 17:58:11.000   40.009519566 -105.243606200  1587.5678   2  14   0.4158   0.2953   0.8803  -0.1458   0.2369  -0.4305   0.01    0.0
2023/03/01 17:58:12.000   40.009519450 -105.243606249  1587.6181   2  14   0.4295   0.2924   0.8899  -0.1399   0.2009  -0.4558   0.01    0.0
2023/03/01 17:58:15.000   40.009521136 -105.243606894  1587.2741   2  14   0.3721   0.3589   0.6590  -0.2401   0.2069  -0.2571   0.01    0.0
2023/03/01 17:58:16.000   40.009521127 -105.243607027  1587.3022   2  14   0.3696   0.3574   0.6384  -0.2377   0.1997  -0.2489   0.01    0.0
2023/03/01 17:58:17.000   40.009521107 -105.243607006  1587.3080   2  14   0.3686   0.3565   0.6302  -0.2367   0.1969  -0.2456   0.01    0.0
2023/03/01 17:58:18.000   40.009521105 -105.243606956  1587.3046   2  14   0.3683   0.3549   0.6300  -0.2360   0.1966  -0.2455   0.01    0.0
2023/03/01 17:58:19.000   40.009521103 -105.243606903  1587.3230   2  14   0.3719   0.3590   0.6367  -0.2364   0.2031  -0.2371   0.01    0.0
2023/03/01 17:58:20.000   40.009521511 -105.243606695  1587.4031   2  14   0.3991   0.3807   0.6975  -0.2251   0.2558  -0.1377   0.01    0.0
2023/03/01 17:58:21.000   40.009520263 -105.243607226  1587.2267   2  14   0.3208   0.2192   0.5997  -0.1073   0.1395  -0.3147   0.01    0.0
2023/03/01 17:58:22.000   40.009520641 -105.243607231  1587.2228   2  14   0.2973   0.2124   0.5777  -0.1163   0.1399  -0.2966   0.01    0.0
2023/03/01 17:58:23.000   40.009520672 -105.243607261  1587.2106   2  13   0.2973   0.2119   0.5773  -0.1161   0.1394  -0.2971   0.01    0.0
2023/03/01 17:58:25.000   40.009520748 -105.243607224  1587.2193   2  14   0.2970   0.2119   0.5773  -0.1164   0.1397  -0.2971   0.01    0.0
2023/03/01 17:58:26.000   40.009520647 -105.243607192  1587.2194   2  13   0.2976   0.2119   0.5779  -0.1162   0.1397  -0.2973   0.01    0.0
2023/03/01 17:58:27.000   40.009520705 -105.243607215  1587.1985   2  14   0.2976   0.2120   0.5787  -0.1165   0.1400  -0.2976   0.01    0.0
2023/03/01 17:58:28.000   40.009520694 -105.243607245  1587.1924   2  14   0.2973   0.2120   0.5795  -0.1167   0.1404  -0.2977   0.01    0.0
2023/03/01 17:58:29.000   40.009520697 -105.243607239  1587.1784   2  14   0.2973   0.2120   0.5801  -0.1168   0.1407  -0.2979   0.01    0.0
2023/03/01 17:58:30.000   40.009520684 -105.243607267  1587.1755   2  14   0.2972   0.2120   0.5806  -0.1168   0.1410  -0.2980   0.01    0.0
2023/03/01 17:58:31.000   40.009520731 -105.243607281  1587.1689   2  14   0.2971   0.2120   0.5810  -0.1168   0.1414  -0.2982   0.01    0.0
2023/03/01 17:58:32.000   40.009520662 -105.243607274  1587.1808   2  14   0.2970   0.2121   0.5822  -0.1170   0.1424  -0.2987   0.01    0.0
2023/03/01 17:58:35.000   40.009520321 -105.243607226  1587.2326   2  14   0.2972   0.2123   0.5875  -0.1175   0.1452  -0.3007   0.01    0.0
2023/03/01 17:58:36.000   40.009520291 -105.243607207  1587.2504   2  14   0.2974   0.2122   0.5877  -0.1175   0.1449  -0.3008   0.01    0.0
2023/03/01 17:58:37.000   40.009520280 -105.243607249  1587.2608   2  14   0.2975   0.2122   0.5884  -0.1176   0.1450  -0.3011   0.01    0.0
2023/03/01 17:58:38.000   40.009520299 -105.243607277  1587.2520   2  14   0.2977   0.2123   0.5891  -0.1177   0.1453  -0.3015   0.01    0.0
2023/03/01 17:58:39.000   40.009520305 -105.243607338  1587.2561   2  13   0.2983   0.2127   0.5898  -0.1188   0.1462  -0.3022   0.01    0.0
2023/03/01 17:58:40.000   40.009520351 -105.243607319  1587.2418   2  14   0.2978   0.2123   0.5900  -0.1179   0.1458  -0.3018   0.01    0.0
2023/03/01 17:58:41.000   40.009520412 -105.243607389  1587.2328   2  14   0.2978   0.2124   0.5901  -0.1180   0.1460  -0.3018   0.01    0.0
2023/03/01 17:58:42.000   40.009520444 -105.243607438  1587.2325   2  14   0.2977   0.2124   0.5898  -0.1179   0.1460  -0.3016   0.01    0.0
2023/03/01 17:58:43.000   40.009520452 -105.243607434  1587.2314   2  14   0.2975   0.2124   0.5890  -0.1178   0.1458  -0.3011   0.01    0.0
2023/03/01 17:58:44.000   40.009520546 -105.243607449  1587.2223   2  14   0.2981   0.2128   0.5902  -0.1182   0.1462  -0.3017   0.01    0.0
2023/03/01 17:58:45.000   40.009520402 -105.243607359  1587.2177   2  14   0.3058   0.2151   0.6252  -0.1225   0.1550  -0.3197   0.01    0.0
2023/03/01 17:58:46.000   40.009518680 -105.243608877  1587.3795   2  14   0.4655   0.3291   0.7602  -0.1561   0.1848  -0.3993   0.01    0.0
2023/03/01 17:58:47.000   40.009518960 -105.243608784  1587.3108   2  14   0.4366   0.3210   0.6368  -0.1413   0.1548  -0.3324   0.01    0.0
2023/03/01 17:58:48.000   40.009519132 -105.243608889  1587.2633   2  14   0.4433   0.3211   0.6676  -0.1508   0.1758  -0.3593   0.01    0.0
2023/03/01 17:58:49.000   40.009518666 -105.243608600  1587.4097   2  14   0.4573   0.3213   0.7810  -0.1582   0.2015  -0.4207   0.01    0.0
2023/03/01 17:58:50.000   40.009518974 -105.243608723  1587.3299   2  14   0.4368   0.3194   0.6659  -0.1424   0.1620  -0.3485   0.01    0.0
2023/03/01 17:58:52.000   40.009518977 -105.243608541  1587.3203   2  14   0.4356   0.3193   0.6586  -0.1415   0.1595  -0.3438   0.01    0.0
2023/03/01 17:58:53.000   40.009519018 -105.243608506  1587.3104   2  14   0.4356   0.3196   0.6592  -0.1412   0.1597  -0.3442   0.01    0.0
2023/03/01 17:58:56.000   40.009519047 -105.243608647  1587.2256   2  14   0.4501   0.3237   0.7378  -0.1496   0.1804  -0.3867   0.01    0.0
2023/03/01 17:58:57.000   40.009518786 -105.243608647  1587.2861   2  14   0.4274   0.3097   0.6829  -0.1403   0.1637  -0.3561   0.01    0.0
2023/03/01 17:58:59.000   40.009519505 -105.243608273  1587.8548   2  15   0.0312   0.0150   0.1269  -0.0160   0.0345  -0.0541   0.01    0.0
2023/03/01 17:59:00.000   40.009519456 -105.243608215  1587.8981   2  15   0.0350   0.0173   0.1623  -0.0188   0.0452  -0.0680   0.01    0.0
2023/03/01 17:59:01.000   40.009519651 -105.243608321  1587.7858   1  15   0.0079   0.0047   0.0166  -0.0040   0.0057  -0.0091   0.01   22.7
2023/03/01 17:59:02.000   40.009519655 -105.243608315  1587.7879   1  14   0.0095   0.0055   0.0190  -0.0052   0.0073  -0.0108   0.01   22.6
2023/03/01 17:59:03.000   40.009519623 -105.243608343  1587.7878   1  15   0.0059   0.0037   0.0135  -0.0021   0.0032  -0.0070   0.01    4.2
2023/03/01 17:59:04.000   40.009519596 -105.243608320  1587.7916   1  14   0.0061   0.0038   0.0139  -0.0023   0.0034  -0.0073   0.01    3.9
2023/03/01 17:59:05.000   40.009519593 -105.243608328  1587.7932   1  15   0.0061   0.0038   0.0139  -0.0023   0.0034  -0.0073   0.01    3.7
2023/03/01 17:59:06.000   40.009519616 -105.243608314  1587.7952   1  14   0.0061   0.0038   0.0139  -0.0023   0.0034  -0.0073   0.01    3.4
2023/03/01 17:59:07.000   40.009519621 -105.243608325  1587.7869   1  14   0.0061   0.0038   0.0139  -0.0023   0.0034  -0.0073   0.01   15.8
2023/03/01 17:59:08.000   40.009519627 -105.243608305  1587.7907   1  14   0.0061   0.0038   0.0139  -0.0023   0.0034  -0.0073   0.01   15.8
2023/03/01 17:59:09.000   40.009519589 -105.243608282  1587.7905   1   4   0.0087   0.0054   0.0198  -0.0031   0.0037  -0.0105   0.01   34.6
2023/03/01 17:59:10.000   40.009519615 -105.243608310  1587.7918   1  14   0.0061   0.0038   0.0139  -0.0023   0.0034  -0.0073   0.01   15.7
2023/03/01 17:59:11.000   40.009519636 -105.243608317  1587.7894   1  15   0.0061   0.0038   0.0139  -0.0023   0.0034  -0.0073   0.01   15.6
2023/03/01 17:59:12.000   40.009519629 -105.243608311  1587.7938   1  14   0.0061   0.0038   0.0139  -0.0022   0.0034  -0.0073   0.01   15.8
2023/03/01 17:59:13.000   40.009519654 -105.243608321  1587.7879   1  14   0.0061   0.0038   0.0139  -0.0022   0.0035  -0.0073   0.01   15.8
2023/03/01 17:59:14.000   40.009519610 -105.243608323  1587.7980   1  14   0.0061   0.0038   0.0139  -0.0022   0.0035  -0.0072   0.01   15.6
2023/03/01 17:59:15.000   40.009519610 -105.243608314  1587.7991   1  14   0.0061   0.0038   0.0139  -0.0022   0.0035  -0.0073   0.01   15.5
2023/03/01 17:59:16.000   40.009519641 -105.243608338  1587.7930   1  14   0.0061   0.0038   0.0139  -0.0022   0.0035  -0.0072   0.01   15.4
2023/03/01 17:59:17.000   40.009519645 -105.243608336  1587.7929   1  14   0.0061   0.0038   0.0139  -0.0023   0.0034  -0.0073   0.01   15.8
2023/03/01 17:59:18.000   40.009519631 -105.243608317  1587.7942   1  15   0.0061   0.0038   0.0139  -0.0023   0.0034  -0.0073   0.01   15.7
2023/03/01 17:59:19.000   40.009519635 -105.243608326  1587.7948   1  14   0.0059   0.0037   0.0135  -0.0021   0.0032  -0.0070   0.01   15.8
2023/03/01 17:59:20.000   40.009519658 -105.243608337  1587.7888   1  14   0.0061   0.0038   0.0138  -0.0023   0.0034  -0.0073   0.01   15.7
2023/03/01 17:59:21.000   40.009519648 -105.243608353  1587.7870   1  14   0.0061   0.0038   0.0138  -0.0023   0.0034  -0.0073   0.01   15.6
2023/03/01 17:59:22.000   40.009519647 -105.243608357  1587.7850   1  14   0.0061   0.0038   0.0138  -0.0023   0.0034  -0.0073   0.01   15.4
2023/03/01 17:59:24.000   40.009519635 -105.243608332  1587.7945   1  14   0.0061   0.0038   0.0138  -0.0023   0.0034  -0.0073   0.01   15.0
2023/03/01 17:59:25.000   40.009519615 -105.243608341  1587.7945   1  14   0.0061   0.0038   0.0138  -0.0023   0.0034  -0.0073   0.01   14.6
2023/03/01 17:59:26.000   40.009519633 -105.243608339  1587.7883   1  14   0.0061   0.0038   0.0138  -0.0023   0.0034  -0.0073   0.01   14.3
2023/03/01 17:59:27.000   40.009519633 -105.243608342  1587.7934   1  14   0.0061   0.0038   0.0138  -0.0023   0.0034  -0.0073   0.01   14.0
2023/03/01 17:59:28.000   40.009519609 -105.243608327  1587.7946   1  14   0.0061   0.0038   0.0138  -0.0023   0.0034  -0.0073   0.01   13.8
2023/03/01 17:59:29.000   40.009519619 -105.243608335  1587.7924   1  14   0.0061   0.0038   0.0138  -0.0023   0.0034  -0.0072   0.01   13.6
2023/03/01 17:59:30.000   40.009519625 -105.243608334  1587.7914   1  14   0.0061   0.0038   0.0138  -0.0023   0.0034  -0.0072   0.01   13.4
2023/03/01 17:59:31.000   40.009519624 -105.243608339  1587.7892   1  14   0.0061   0.0038   0.0138  -0.0023   0.0034  -0.0072   0.01   13.2
2023/03/01 17:59:32.000   40.009519644 -105.243608346  1587.7899   1  14   0.0061   0.0038   0.0138  -0.0023   0.0034  -0.0072   0.01   13.0
2023/03/01 17:59:33.000   40.009519608 -105.243608346  1587.7952   1  14   0.0061   0.0038   0.0138  -0.0023   0.0034  -0.0072   0.01   12.8
2023/03/01 17:59:34.000   40.009519625 -105.243608368  1587.7916   1  14   0.0061   0.0038   0.0138  -0.0023   0.0034  -0.0072   0.01   12.7
2023/03/01 17:59:35.000   40.009519600 -105.243608354  1587.7921   1  14   0.0043   0.0027   0.0098  -0.0016   0.0024  -0.0051   0.01   11.9
2023/03/01 17:59:36.000   40.009519616 -105.243608359  1587.7938   1  14   0.0043   0.0027   0.0098  -0.0016   0.0024  -0.0051   0.01   12.1
2023/03/01 17:59:37.000   40.009519630 -105.243608364  1587.7883   1  14   0.0043   0.0027   0.0098  -0.0016   0.0024  -0.0051   0.01   12.3
2023/03/01 17:59:38.000   40.009519609 -105.243608348  1587.7948   1  15   0.0043   0.0027   0.0098  -0.0016   0.0024  -0.0051   0.01   12.8
2023/03/01 17:59:39.000   40.009519605 -105.243608340  1587.7980   1  14   0.0043   0.0027   0.0098  -0.0016   0.0024  -0.0051   0.01   13.1
2023/03/01 17:59:40.000   40.009519612 -105.243608344  1587.7941   1  14   0.0043   0.0027   0.0098  -0.0016   0.0024  -0.0051   0.01   13.4
2023/03/01 17:59:41.000   40.009519603 -105.243608353  1587.7927   1  14   0.0043   0.0027   0.0098  -0.0016   0.0024  -0.0051   0.01   13.6
2023/03/01 17:59:42.000   40.009519610 -105.243608332  1587.7941   1  14   0.0043   0.0027   0.0098  -0.0016   0.0024  -0.0051   0.01   13.7
2023/03/01 17:59:43.000   40.009519591 -105.243608339  1587.7914   1  14   0.0043   0.0027   0.0098  -0.0016   0.0024  -0.0051   0.01   13.8
2023/03/01 17:59:44.000   40.009519593 -105.243608354  1587.7862   1  14   0.0043   0.0027   0.0097  -0.0016   0.0024  -0.0051   0.01   14.0
2023/03/01 17:59:45.000   40.009519586 -105.243608345  1587.7913   1  14   0.0043   0.0027   0.0097  -0.0016   0.0024  -0.0051   0.01   14.1
2023/03/01 17:59:46.000   40.009519608 -105.243608350  1587.7820   1  14   0.0043   0.0027   0.0097  -0.0016   0.0024  -0.0051   0.01   14.3
2023/03/01 17:59:47.000   40.009519589 -105.243608343  1587.7894   1  15   0.0043   0.0027   0.0097  -0.0016   0.0024  -0.0051   0.01   14.6
2023/03/01 17:59:48.000   40.009519600 -105.243608349  1587.7840   1  14   0.0043   0.0027   0.0097  -0.0016   0.0024  -0.0051   0.01   14.8
2023/03/01 17:59:49.000   40.009519584 -105.243608353  1587.7860   1  14   0.0043   0.0027   0.0097  -0.0016   0.0024  -0.0051   0.01   15.1
2023/03/01 17:59:50.000   40.009519589 -105.243608366  1587.7865   1  14   0.0043   0.0027   0.0097  -0.0016   0.0024  -0.0051   0.01   15.3
2023/03/01 17:59:51.000   40.009519606 -105.243608338  1587.7823   1  14   0.0043   0.0027   0.0097  -0.0016   0.0024  -0.0051   0.01   15.4
2023/03/01 17:59:52.000   40.009519609 -105.243608346  1587.7834   1  14   0.0043   0.0027   0.0097  -0.0016   0.0024  -0.0051   0.01   15.4
2023/03/01 17:59:53.000   40.009519583 -105.243608354  1587.7887   1  14   0.0043   0.0027   0.0097  -0.0016   0.0024  -0.0051   0.01   15.5
2023/03/01 17:59:54.000   40.009519596 -105.243608348  1587.7826   1  14   0.0043   0.0027   0.0097  -0.0016   0.0024  -0.0051   0.01   15.5
2023/03/01 17:59:55.000   40.009519553 -105.243608361  1587.7901   1  14   0.0043   0.0027   0.0097  -0.0016   0.0024  -0.0051   0.01   16.7
2023/03/01 17:59:56.000   40.009519556 -105.243608355  1587.7880   1  14   0.0043   0.0027   0.0097  -0.0016   0.0024  -0.0051   0.01   16.9
2023/03/01 17:59:57.000   40.009519586 -105.243608348  1587.7817   1  14   0.0043   0.0027   0.0097  -0.0016   0.0024  -0.0051   0.01   17.1
2023/03/01 17:59:58.000   40.009519569 -105.243608365  1587.7832   1  14   0.0043   0.0027   0.0097  -0.0016   0.0024  -0.0051   0.01   17.2
2023/03/01 17:59:59.000   40.009519570 -105.243608369  1587.7867   1  14   0.0043   0.0027   0.0097  -0.0016   0.0024  -0.0051   0.01   17.5
2023/03/01 18:00:00.000   40.009519573 -105.243608372  1587.7817   1  14   0.0043   0.0027   0.0097  -0.0016   0.0024  -0.0051   0.01   17.6
2023/03/01 18:00:01.000   40.009519619 -105.243608326  1587.7771   1  14   0.0060   0.0038   0.0137  -0.0023   0.0034  -0.0072   0.01   17.8
2023/03/01 18:00:02.000   40.009519568 -105.243608325  1587.7894   1  14   0.0060   0.0038   0.0137  -0.0023   0.0035  -0.0072   0.01   17.9
2023/03/01 18:00:03.000   40.009519566 -105.243608330  1587.7836   1  14   0.0060   0.0038   0.0137  -0.0023   0.0035  -0.0072   0.01   18.1
2023/03/01 18:00:04.000   40.009519541 -105.243608345  1587.7975   1  14   0.0060   0.0038   0.0137  -0.0023   0.0035  -0.0072   0.01   18.3
2023/03/01 18:00:05.000   40.009519612 -105.243608340  1587.7837   1  14   0.0060   0.0038   0.0137  -0.0023   0.0035  -0.0072   0.01   18.5
2023/03/01 18:00:06.000   40.009519604 -105.243608340  1587.7873   1  14   0.0060   0.0038   0.0137  -0.0023   0.0035  -0.0072   0.01   18.7
2023/03/01 18:00:07.000   40.009519586 -105.243608318  1587.7925   1  14   0.0060   0.0038   0.0137  -0.0023   0.0035  -0.0072   0.01   18.9
2023/03/01 18:00:08.000   40.009519622 -105.243608329  1587.7823   1  14   0.0060   0.0038   0.0137  -0.0023   0.0035  -0.0072   0.01   19.2
2023/03/01 18:00:09.000   40.009519603 -105.243608329  1587.7845   1  14   0.0060   0.0038   0.0137  -0.0023   0.0035  -0.0072   0.01   19.2
2023/03/01 18:00:10.000   40.009519610 -105.243608320  1587.7833   1  15   0.0060   0.0038   0.0137  -0.0023   0.0035  -0.0072   0.01   19.2
2023/03/01 18:00:11.000   40.009519613 -105.243608348  1587.7864   1  15   0.0060   0.0038   0.0137  -0.0023   0.0035  -0.0072   0.01   19.4
2023/03/01 18:00:12.000   40.009519590 -105.243608328  1587.7930   1  15   0.0059   0.0037   0.0134  -0.0021   0.0032  -0.0069   0.01   19.5
2023/03/01 18:00:13.000   40.009519603 -105.243608349  1587.7914   1  15   0.0060   0.0038   0.0137  -0.0023   0.0035  -0.0072   0.01   19.6
2023/03/01 18:00:14.000   40.009519570 -105.243608324  1587.7978   1  14   0.0060   0.0038   0.0137  -0.0023   0.0035  -0.0072   0.01   19.8
2023/03/01 18:00:15.000   40.009519597 -105.243608349  1587.7910   1  14   0.0060   0.0038   0.0137  -0.0023   0.0035  -0.0072   0.01   20.1
2023/03/01 18:00:16.000   40.009519586 -105.243608350  1587.7924   1  14   0.0060   0.0038   0.0137  -0.0023   0.0035  -0.0072   0.01   20.2
2023/03/01 18:00:17.000   40.009519624 -105.243608346  1587.7888   1  14   0.0060   0.0038   0.0137  -0.0023   0.0035  -0.0072   0.01   20.3
2023/03/01 18:00:18.000   40.009519593 -105.243608310  1587.7881   1  14   0.0060   0.0038   0.0137  -0.0023   0.0035  -0.0072   0.01   20.6
2023/03/01 18:00:19.000   40.009519633 -105.243608296  1587.7897   1  14   0.0060   0.0038   0.0137  -0.0023   0.0035  -0.0072   0.01   20.6
2023/03/01 18:00:20.000   40.009519610 -105.243608330  1587.7868   1  14   0.0060   0.0038   0.0137  -0.0023   0.0035  -0.0072   0.01   20.7
2023/03/01 18:00:21.000   40.009519604 -105.243608350  1587.8043   1  14   0.0060   0.0038   0.0137  -0.0023   0.0035  -0.0072   0.01   20.7
2023/03/01 18:00:22.000   40.009519590 -105.243608337  1587.7982   1  14   0.0060   0.0038   0.0137  -0.0023   0.0035  -0.0072   0.01   20.8
2023/03/01 18:00:23.000   40.009519615 -105.243608318  1587.7964   1  14   0.0060   0.0038   0.0137  -0.0023   0.0035  -0.0072   0.01   20.8
2023/03/01 18:00:24.000   40.009519622 -105.243608310  1587.7951   1  14   0.0060   0.0038   0.0137  -0.0023   0.0035  -0.0072   0.01   20.9
2023/03/01 18:00:25.000   40.009519691 -105.243608329  1587.7765   1  14   0.0060   0.0038   0.0137  -0.0023   0.0035  -0.0072   0.01   21.2
2023/03/01 18:00:26.000   40.009519664 -105.243608304  1587.7829   1  14   0.0060   0.0038   0.0137  -0.0023   0.0035  -0.0072   0.01   21.3
2023/03/01 18:00:27.000   40.009519677 -105.243608326  1587.7830   1  14   0.0060   0.0038   0.0137  -0.0023   0.0035  -0.0072   0.01   21.4
2023/03/01 18:00:28.000   40.009519740 -105.243608325  1587.7701   1  14   0.0060   0.0038   0.0137  -0.0023   0.0035  -0.0072   0.01   21.4
2023/03/01 18:00:29.000   40.009519637 -105.243608338  1587.7850   1  14   0.0060   0.0038   0.0137  -0.0023   0.0035  -0.0072   0.01   21.5
2023/03/01 18:00:30.000   40.009519595 -105.243608314  1587.7941   1  14   0.0060   0.0038   0.0137  -0.0023   0.0035  -0.0072   0.01   21.3
2023/03/01 18:00:31.000   40.009519590 -105.243608319  1587.8046   1  14   0.0060   0.0038   0.0137  -0.0023   0.0035  -0.0072   0.01   21.5
2023/03/01 18:00:33.000   40.009518545 -105.243607874  1587.7000   2  14   0.7543   0.6178   0.5372  -0.2284   0.1170  -0.2488   0.01    0.0
2023/03/01 18:00:35.000   40.009519625 -105.243608295  1587.7656   1  13   0.0149   0.0080   0.0323   0.0075  -0.0114  -0.0205   0.01   64.7
2023/03/01 18:00:36.000   40.009518613 -105.243608894  1587.5335   2  14   0.1403   0.0561   0.2592   0.0860   0.1177   0.1877   0.01    0.0
2023/03/01 18:00:37.000   40.009519640 -105.243608305  1587.7854   1  14   0.0069   0.0046   0.0146  -0.0031   0.0042  -0.0077   0.01   28.9
2023/03/01 18:00:38.000   40.009519604 -105.243608283  1587.7943   1  14   0.0071   0.0050   0.0150  -0.0031   0.0045  -0.0078   0.01   28.0
2023/03/01 18:00:39.000   40.009519645 -105.243608336  1587.7883   1  14   0.0060   0.0038   0.0136  -0.0023   0.0035  -0.0071   0.01    7.9
2023/03/01 18:00:40.000   40.009519651 -105.243608345  1587.7827   1  14   0.0060   0.0038   0.0136  -0.0023   0.0035  -0.0071   0.01    7.6
2023/03/01 18:00:41.000   40.009519631 -105.243608335  1587.7851   1  14   0.0060   0.0038   0.0136  -0.0023   0.0035  -0.0071   0.01    7.5
2023/03/01 18:00:42.000   40.009519618 -105.243608339  1587.7833   1  14   0.0060   0.0038   0.0136  -0.0023   0.0035  -0.0071   0.01    7.4
2023/03/01 18:00:43.000   40.009519640 -105.243608361  1587.7815   1  14   0.0060   0.0038   0.0136  -0.0023   0.0035  -0.0071   0.01    7.4
2023/03/01 18:00:44.000   40.009519597 -105.243608367  1587.7859   1  14   0.0060   0.0038   0.0136  -0.0023   0.0035  -0.0071   0.01    7.3
2023/03/01 18:00:45.000   40.009519605 -105.243608350  1587.7866   1  14   0.0060   0.0038   0.0136  -0.0023   0.0035  -0.0071   0.01    7.3
2023/03/01 18:00:46.000   40.009519584 -105.243608358  1587.7915   1  14   0.0060   0.0038   0.0136  -0.0023   0.0035  -0.0071   0.01    7.5
2023/03/01 18:00:47.000   40.009519590 -105.243608356  1587.7880   1  14   0.0060   0.0038   0.0136  -0.0023   0.0035  -0.0071   0.01    7.4
2023/03/01 18:00:48.000   40.009519557 -105.243608388  1587.7963   1  14   0.0060   0.0038   0.0136  -0.0023   0.0035  -0.0071   0.01    7.4
2023/03/01 18:00:49.000   40.009519648 -105.243608365  1587.7816   1  14   0.0060   0.0038   0.0136  -0.0023   0.0035  -0.0071   0.01    7.3
2023/03/01 18:00:50.000   40.009519555 -105.243608359  1587.7922   1  14   0.0060   0.0038   0.0136  -0.0023   0.0035  -0.0071   0.01    7.3
2023/03/01 18:00:51.000   40.009519575 -105.243608348  1587.7959   1  14   0.0060   0.0038   0.0136  -0.0023   0.0035  -0.0071   0.01    7.2
2023/03/01 18:00:52.000   40.009519562 -105.243608333  1587.8019   1  14   0.0060   0.0038   0.0136  -0.0023   0.0035  -0.0071   0.01    7.1
2023/03/01 18:00:53.000   40.009519595 -105.243608324  1587.7817   1  14   0.0060   0.0038   0.0136  -0.0023   0.0035  -0.0071   0.01    7.0
2023/03/01 18:00:54.000   40.009519579 -105.243608310  1587.7938   1  13   0.0045   0.0028   0.0097  -0.0019   0.0027  -0.0052   0.01   13.8
2023/03/01 18:00:55.000   40.009519569 -105.243608313  1587.7956   1  14   0.0043   0.0027   0.0096  -0.0016   0.0024  -0.0050   0.01   14.1
2023/03/01 18:00:56.000   40.009519610 -105.243608333  1587.7879   1  14   0.0043   0.0027   0.0096  -0.0016   0.0024  -0.0050   0.01   14.3
2023/03/01 18:00:57.000   40.009519596 -105.243608328  1587.7933   1  14   0.0043   0.0027   0.0096  -0.0016   0.0024  -0.0050   0.01   14.3
2023/03/01 18:00:58.000   40.009519628 -105.243608348  1587.7948   1  14   0.0043   0.0027   0.0096  -0.0016   0.0024  -0.0050   0.01   13.8
2023/03/01 18:00:59.000   40.009519581 -105.243608338  1587.8025   1  14   0.0043   0.0027   0.0096  -0.0016   0.0024  -0.0050   0.01   13.5
2023/03/01 18:01:00.000   40.009519600 -105.243608344  1587.7982   1  14   0.0060   0.0038   0.0136  -0.0023   0.0035  -0.0071   0.01   13.3
2023/03/01 18:01:01.000   40.009519613 -105.243608327  1587.7983   1  14   0.0060   0.0038   0.0136  -0.0023   0.0035  -0.0071   0.01   12.9
2023/03/01 18:01:02.000   40.009519599 -105.243608310  1587.8082   1  14   0.0060   0.0038   0.0136  -0.0023   0.0035  -0.0071   0.01   13.0
2023/03/01 18:01:03.000   40.009519579 -105.243608329  1587.8046   1  14   0.0060   0.0038   0.0136  -0.0023   0.0035  -0.0071   0.01   12.8
2023/03/01 18:01:04.000   40.009519595 -105.243608337  1587.8018   1  15   0.0059   0.0037   0.0132  -0.0021   0.0032  -0.0068   0.01   13.1
2023/03/01 18:01:05.000   40.009519613 -105.243608308  1587.7926   1  15   0.0060   0.0038   0.0136  -0.0023   0.0035  -0.0071   0.01   12.7
2023/03/01 18:01:06.000   40.009519593 -105.243608316  1587.7994   1  14   0.0060   0.0038   0.0136  -0.0023   0.0035  -0.0071   0.01   12.7
2023/03/01 18:01:07.000   40.009519626 -105.243608296  1587.7891   1  14   0.0060   0.0038   0.0136  -0.0023   0.0035  -0.0071   0.01   12.6
2023/03/01 18:01:08.000   40.009519615 -105.243608310  1587.7890   1  14   0.0060   0.0038   0.0136  -0.0023   0.0035  -0.0071   0.01   12.3
2023/03/01 18:01:09.000   40.009519631 -105.243608311  1587.7932   1  14   0.0060   0.0038   0.0136  -0.0023   0.0035  -0.0071   0.01   12.2
2023/03/01 18:01:10.000   40.009519632 -105.243608316  1587.7900   1  14   0.0060   0.0038   0.0136  -0.0023   0.0035  -0.0071   0.01   12.2
2023/03/01 18:01:11.000   40.009519651 -105.243608331  1587.7890   1  14   0.0060   0.0038   0.0136  -0.0023   0.0035  -0.0071   0.01   11.5
2023/03/01 18:01:12.000   40.009519629 -105.243608324  1587.7981   1  14   0.0060   0.0038   0.0136  -0.0023   0.0035  -0.0071   0.01   11.6
2023/03/01 18:01:13.000   40.009519615 -105.243608334  1587.7904   1  14   0.0060   0.0038   0.0136  -0.0023   0.0035  -0.0071   0.01   11.5
